id,flat_type,listing_url,img_url,listing_name,floor_area_sqm,lease_commence_date,remaining_lease,resale_price,latitude,longitude,postal_district,mrt_nearest,mrt_distance,mall_nearest,mall_distance,orchard_distance,hawker_distance,market_distance
23446280,1 ROOM,https://www.propertyguru.com.sg/listing/hdb-for-sale-7-telok-blangah-crescent-23446280,https://sg2-cdn.pgimgs.com/listing/23446280/UPHO.128107293.R400X300/7-Telok-Blangah-Crescent-Harbourfront-Telok-Blangah-Singapore.jpg,7 Telok Blangah Crescent,31.0296453887531,1974,52,210000,1.27836137310783,103.819384010497,4,Tiong Bahru,1.24042000181772,Tiong   Bahru   Plaza    Singapore ,1.26874661161276,3.29253398086637,0.137977438926479,0.063113276056202
22949287,1 ROOM,https://www.propertyguru.com.sg/listing/hdb-for-sale-64-tiong-poh-road-22949287,https://sg2-cdn.pgimgs.com/listing/22949287/UPHO.121288923.R400X300/64-Tiong-Poh-Road-Alexandra-Commonwealth-Singapore.jpg,64 Tiong Poh Road,116.965040552216,1937,15,1500000,1.28371484671919,103.833690180573,3,Outram Park,0.744213260315025,Tiong   Bahru   Plaza    Singapore ,0.741941500502859,2.35898751913574,0.177620401923358,0.092162959203764
23325558,1 ROOM,https://www.propertyguru.com.sg/listing/hdb-for-sale-7-telok-blangah-crescent-23325558,https://sg2-cdn.pgimgs.com/listing/23325558/UPHO.126587043.R400X300/7-Telok-Blangah-Crescent-Harbourfront-Telok-Blangah-Singapore.jpg,7 Telok Blangah Crescent,31.0296453887531,1974,52,230000,1.27836137310783,103.819384010497,4,Tiong Bahru,1.24042000181772,Tiong   Bahru   Plaza    Singapore ,1.26874661161276,3.29253398086637,0.137977438926479,0.063113276056202
23459063,1 ROOM,https://www.propertyguru.com.sg/listing/hdb-for-sale-7-telok-blangah-crescent-23459063,https://sg1-cdn.pgimgs.com/listing/23459063/UPHO.128278874.R400X300/7-Telok-Blangah-Crescent-Harbourfront-Telok-Blangah-Singapore.jpg,7 Telok Blangah Crescent,31.0296453887531,1974,52,220000,1.27836137310783,103.819384010497,4,Tiong Bahru,1.24042000181772,Tiong   Bahru   Plaza    Singapore ,1.26874661161276,3.29253398086637,0.137977438926479,0.063113276056202
23469736,2 ROOM,https://www.propertyguru.com.sg/listing/hdb-for-sale-26-ghim-moh-link-23469736,https://sg2-cdn.pgimgs.com/listing/23469736/UPHO.128421135.R400X300/26-Ghim-Moh-Link-Tanglin-Holland-Bukit-Timah-Singapore.jpg,26 Ghim Moh Link,47.008983732662,2011,89,400000,1.30838826045914,103.785551268112,10,Buona Vista,0.513153411394687,The   Star   Vista    Singapore ,0.367905319046482,5.2363064157711,0.409963571853688,0.062958515306449
23469665,2 ROOM,https://www.propertyguru.com.sg/listing/hdb-for-sale-95a-henderson-road-23469665,https://sg2-cdn.pgimgs.com/listing/23469665/UPHO.128420239.R400X300/95A-Henderson-Road-Alexandra-Commonwealth-Singapore.jpg,95A Henderson Road,47.008983732662,2018,96,498000,1.2865978995213,103.821365379859,3,Redhill,0.613222096586464,Tiong   Bahru   Plaza    Singapore ,0.688251390515146,2.38320564196006,0.143370284367494,0.301373820757118
23447591,2 ROOM,https://www.propertyguru.com.sg/listing/hdb-for-sale-180a-boon-lay-drive-23447591,https://sg1-cdn.pgimgs.com/listing/23447591/UPHO.128391266.R400X300/180A-Boon-Lay-Drive-Boon-Lay-Jurong-Tuas-Singapore.jpg,180A Boon Lay Drive,47.008983732662,2012,90,245000,1.3476144467016,103.708643452604,22,Boon Lay,1.04833148627325,Boon   Lay   Shopping   Centre    Singapore ,0.447483761877782,14.5674733684574,0.55949148538448,0.447483761877782
23459072,2 ROOM,https://www.propertyguru.com.sg/listing/hdb-for-sale-467b-fernvale-link-23459072,https://sg2-cdn.pgimgs.com/listing/23459072/UPHO.128279009.R400X300/467B-Fernvale-Link-Seletar-Yio-Chu-Kang-Singapore.jpg,467B Fernvale Link,46.9160806027555,2015,93,310000,1.39807105476612,103.877933381661,28,Thanggam,0.269524016539477,The   Seletar   Mall    Singapore ,0.756253169294486,11.524680723956,3.82156123662892,0.41966514422554
23468869,2 ROOM,https://www.propertyguru.com.sg/listing/hdb-for-sale-52-lorong-6-toa-payoh-23468869,https://sg1-cdn.pgimgs.com/listing/23468869/UPHO.128409622.R400X300/52-Lorong-6-Toa-Payoh-Balestier-Toa-Payoh-Singapore.jpg,52 Lorong 6 Toa Payoh,42.9212460167783,1966,44,210000,1.33824914332832,103.852481978622,12,Braddell,0.650898133942673,HDB   Hub   Singapore ,0.901429264099138,4.32144685007805,0.257640674726155,0.337356182571545
23454724,2 ROOM,https://www.propertyguru.com.sg/listing/hdb-for-sale-52-lorong-6-toa-payoh-23454724,https://sg2-cdn.pgimgs.com/listing/23454724/UPHO.128218385.R400X300/52-Lorong-6-Toa-Payoh-Balestier-Toa-Payoh-Singapore.jpg,52 Lorong 6 Toa Payoh,42.9212460167783,1966,44,210000,1.33824914332832,103.852481978622,12,Braddell,0.650898133942673,HDB   Hub   Singapore ,0.901429264099138,4.32144685007805,0.257640674726155,0.337356182571545
23454721,2 ROOM,https://www.propertyguru.com.sg/listing/hdb-for-sale-52-lorong-6-toa-payoh-23454721,https://sg1-cdn.pgimgs.com/listing/23454721/UPHO.128218300.R400X300/52-Lorong-6-Toa-Payoh-Balestier-Toa-Payoh-Singapore.jpg,52 Lorong 6 Toa Payoh,42.9212460167783,1966,44,210000,1.33824914332832,103.852481978622,12,Braddell,0.650898133942673,HDB   Hub   Singapore ,0.901429264099138,4.32144685007805,0.257640674726155,0.337356182571545
23454715,2 ROOM,https://www.propertyguru.com.sg/listing/hdb-for-sale-52-lorong-6-toa-payoh-23454715,https://sg1-cdn.pgimgs.com/listing/23454715/UPHO.128218204.R400X300/52-Lorong-6-Toa-Payoh-Balestier-Toa-Payoh-Singapore.jpg,52 Lorong 6 Toa Payoh,42.9212460167783,1966,44,210000,1.33824914332832,103.852481978622,12,Braddell,0.650898133942673,HDB   Hub   Singapore ,0.901429264099138,4.32144685007805,0.257640674726155,0.337356182571545
23463699,2 ROOM,https://www.propertyguru.com.sg/listing/hdb-for-sale-508-jurong-west-street-52-23463699,https://sg2-cdn.pgimgs.com/listing/23463699/UPHO.128338699.R400X300/508-Jurong-West-Street-52-Boon-Lay-Jurong-Tuas-Singapore.jpg,508 Jurong West Street 52,91.0450673083176,1984,62,390000,1.34872718063363,103.718715391434,22,Lakeside,0.547579976935787,Boon   Lay   Shopping   Centre    Singapore ,0.741655058455296,13.5579270147056,0.106025144519527,0.322295369580422
23468576,2 ROOM,https://www.propertyguru.com.sg/listing/hdb-for-sale-528a-pasir-ris-street-51-23468576,https://sg1-cdn.pgimgs.com/listing/23468576/UPHO.128405702.R400X300/528A-Pasir-Ris-Street-51-Pasir-Ris-Tampines-Singapore.jpg,528A Pasir Ris Street 51,47.008983732662,2012,90,300000,1.37021066906466,103.947986536645,18,Pasir Ris,0.368448020786167,White   Sands    Singapore ,0.301772031906146,14.7474441320466,2.74202747775371,0.058746505528888
23375218,2 ROOM,https://www.propertyguru.com.sg/listing/hdb-for-sale-8-jalan-kukoh-23375218,https://sg2-cdn.pgimgs.com/listing/23375218/UPHO.127173273.R400X300/8-Jalan-Kukoh-Alexandra-Commonwealth-Singapore.jpg,8 Jalan Kukoh,53.047687176581,1970,48,298000,1.2873776268224,103.839407060595,3,Chinatown,0.563658490479326,People's   Park   Complex    Singapore ,0.505282768404113,2.09297996697135,0.111528553366755,0.243784914181245
22733425,2 ROOM,https://www.propertyguru.com.sg/listing/hdb-for-sale-547c-segar-road-22733425,https://sg2-cdn.pgimgs.com/listing/22733425/UPHO.119000255.R400X300/547C-Segar-Road-Dairy-Farm-Bukit-Panjang-Choa-Chu-Kang-Singapore.jpg,547C Segar Road,47.008983732662,2014,92,280000,1.38853827277488,103.768773256544,23,Segar,0.12979506282255,Greenridge   Shopping   Centre    Singapore ,0.448724820825106,11.6928370268221,5.5010542048037,0.095128260424259
23467772,2 ROOM,https://www.propertyguru.com.sg/listing/hdb-for-sale-26-ghim-moh-link-23467772,https://sg2-cdn.pgimgs.com/listing/23467772/UPHO.128393155.R400X300/26-Ghim-Moh-Link-Tanglin-Holland-Bukit-Timah-Singapore.jpg,26 Ghim Moh Link,46.9160806027555,2011,89,400000,1.30838826045914,103.785551268112,10,Buona Vista,0.513153411394687,The   Star   Vista    Singapore ,0.367905319046482,5.2363064157711,0.409963571853688,0.062958515306449
23457977,2 ROOM,https://www.propertyguru.com.sg/listing/hdb-for-sale-445b-fernvale-road-23457977,https://sg1-cdn.pgimgs.com/listing/23457977/UPHO.128264398.R400X300/445B-Fernvale-Road-Seletar-Yio-Chu-Kang-Singapore.jpg,445B Fernvale Road,47.008983732662,2011,89,300000,1.39224716162446,103.874095130429,28,Fernvale,0.241384682050674,The   Seletar   Mall    Singapore ,0.245249011292326,10.7560980370565,3.05988587309367,0.178773621667472
22221354,2 ROOM,https://www.propertyguru.com.sg/listing/hdb-for-sale-79-chay-yan-street-22221354,https://sg1-cdn.pgimgs.com/listing/22221354/UPHO.113482128.R400X300/79-Chay-Yan-Street-Alexandra-Commonwealth-Singapore.jpg,79 Chay Yan Street,97.5482864017689,1937,15,1388888,1.28254464335985,103.830801232256,3,Tiong Bahru,0.617721856077355,Tiong   Bahru   Plaza    Singapore ,0.554888457038688,2.49292695440252,0.298567550027312,0.302040720819653
23405235,2 ROOM,https://www.propertyguru.com.sg/listing/hdb-for-sale-26-ghim-moh-link-23405235,https://sg1-cdn.pgimgs.com/listing/23405235/UPHO.127582738.R400X300/26-Ghim-Moh-Link-Tanglin-Holland-Bukit-Timah-Singapore.jpg,26 Ghim Moh Link,46.9160806027555,2011,89,358000,1.30838826045914,103.785551268112,10,Buona Vista,0.513153411394687,The   Star   Vista    Singapore ,0.367905319046482,5.2363064157711,0.409963571853688,0.062958515306449
23456857,2 ROOM,https://www.propertyguru.com.sg/listing/hdb-for-sale-423-clementi-avenue-1-23456857,https://sg2-cdn.pgimgs.com/listing/23456857/UPHO.128248273.R400X300/423-Clementi-Avenue-1-Buona-Vista-West-Coast-Clementi-New-Town-Singapore.jpg,423 Clementi Avenue 1,48.9599494606973,2011,89,358000,1.30945612208303,103.769918822857,5,Clementi,0.792955014989706,321 Clementi Singapore,0.6208113427223,6.97813262780843,0.558610364272491,0.14074091424011
23455549,2 ROOM,https://www.propertyguru.com.sg/listing/hdb-for-sale-188-boon-lay-drive-23455549,https://sg2-cdn.pgimgs.com/listing/23455549/UPHO.128229179.R400X300/188-Boon-Lay-Drive-Boon-Lay-Jurong-Tuas-Singapore.jpg,188 Boon Lay Drive,46.9160806027555,1975,53,250000,1.34381009067473,103.710990466041,22,Boon Lay,0.81474304368581,Boon   Lay   Shopping   Centre    Singapore ,0.32926746662959,14.1863973720715,0.313673029158365,0.32926746662959
23249777,2 ROOM,https://www.propertyguru.com.sg/listing/hdb-for-sale-780f-woodlands-crescent-23249777,https://sg2-cdn.pgimgs.com/listing/23249777/UPHO.125614217.R400X300/780F-Woodlands-Crescent-Admiralty-Woodlands-Singapore.jpg,780F Woodlands Crescent,46.9160806027555,2014,92,310000,1.44777726469884,103.801148446244,25,Woodlands,2.03124096640679,Woodlands   Mart    Singapore ,0.407734441437258,16.2658661713081,2.72321617495975,0.063562040258507
23452275,2 ROOM,https://www.propertyguru.com.sg/listing/hdb-for-sale-424a-yishun-avenue-11-23452275,https://sg2-cdn.pgimgs.com/listing/23452275/UPHO.128266249.R400X300/424A-Yishun-Avenue-11-Sembawang-Yishun-Singapore.jpg,424A Yishun Avenue 11,47.008983732662,2014,92,275000,1.42322643296322,103.848049317931,27,Yishun,1.61329272140485,Wisteria   Mall    Singapore ,0.954655361047257,13.2702618641407,2.38647566938774,0.20615765228725
23456521,2 ROOM,https://www.propertyguru.com.sg/listing/hdb-for-sale-371-jurong-east-street-32-23456521,https://sg2-cdn.pgimgs.com/listing/23456521/UPHO.128243229.R400X300/371-Jurong-East-Street-32-Boon-Lay-Jurong-Tuas-Singapore.jpg,371 Jurong East Street 32,43.0141491466848,2013,91,288000,1.3483083591294,103.731919903016,22,Chinese Garden,0.657112428210326,JCube    Singapore ,1.91077161376537,12.1810477393541,0.33525971975092,0.320540626371199
23339928,2 ROOM,https://www.propertyguru.com.sg/listing/hdb-for-sale-26-ghim-moh-link-23339928,https://sg1-cdn.pgimgs.com/listing/23339928/UPHO.126757126.R400X300/26-Ghim-Moh-Link-Tanglin-Holland-Bukit-Timah-Singapore.jpg,26 Ghim Moh Link,47.008983732662,2011,89,460000,1.30838826045914,103.785551268112,10,Buona Vista,0.513153411394687,The   Star   Vista    Singapore ,0.367905319046482,5.2363064157711,0.409963571853688,0.062958515306449
22514539,2 ROOM,https://www.propertyguru.com.sg/listing/hdb-for-sale-48-lower-delta-road-22514539,https://sg1-cdn.pgimgs.com/listing/22514539/UPHO.125138508.R400X300/48-Lower-Delta-Road-Alexandra-Commonwealth-Singapore.jpg,48 Lower Delta Road,45.987049303691,1964,42,240000,1.28944268125333,103.826201445621,3,Tiong Bahru,0.331871541848763,Tiong   Bahru   Plaza    Singapore ,0.377041412546978,1.85674441683445,0.149219171018675,0.07584903551711
23437309,2 ROOM,https://www.propertyguru.com.sg/listing/hdb-for-sale-256c-sumang-walk-23437309,https://sg2-cdn.pgimgs.com/listing/23437309/UPHO.127987113.R400X300/256C-Sumang-Walk-Hougang-Punggol-Sengkang-Singapore.jpg,256C Sumang Walk,46.9160806027555,2015,93,310000,1.40540203681825,103.895910481206,19,Soo Teck,0.153062669410273,Waterway   Point    Singapore ,0.687277041072587,13.2114442763429,5.26395905526798,0.101545173116564
23415385,2 ROOM,https://www.propertyguru.com.sg/listing/hdb-for-sale-447b-jalan-kayu-23415385,https://sg1-cdn.pgimgs.com/listing/23415385/UPHO.127714284.R400X300/447B-Jalan-Kayu-Seletar-Yio-Chu-Kang-Singapore.jpg,447B Jalan Kayu,46.9160806027555,2012,90,300000,1.39246632922429,103.873207670352,28,Fernvale,0.342267817353878,The   Seletar   Mall    Singapore ,0.34648944459388,10.736181866351,3.00783693492249,0.087660896066859
23408448,2 ROOM,https://www.propertyguru.com.sg/listing/hdb-for-sale-423-clementi-avenue-1-23408448,https://sg1-cdn.pgimgs.com/listing/23408448/UPHO.127626190.R400X300/423-Clementi-Avenue-1-Buona-Vista-West-Coast-Clementi-New-Town-Singapore.jpg,423 Clementi Avenue 1,49.9818838896683,2011,89,348000,1.30945612208303,103.769918822857,5,Clementi,0.792955014989706,321 Clementi Singapore,0.6208113427223,6.97813262780843,0.558610364272491,0.14074091424011
23427314,2 ROOM,https://www.propertyguru.com.sg/listing/hdb-for-sale-366a-sembawang-crescent-23427314,https://sg1-cdn.pgimgs.com/listing/23427314/UPHO.128396412.R400X300/366A-Sembawang-Crescent-Sembawang-Yishun-Singapore.jpg,366A Sembawang Crescent,47.9380150317264,2018,96,300000,1.4438005069825,103.816211984803,27,Sembawang,0.731129996803835,Sun   Plaza    Singapore ,0.612700398573256,15.5513997752105,1.90338500119062,0.607795635997492
23469639,2 ROOM,https://www.propertyguru.com.sg/listing/hdb-for-sale-620-bedok-reservoir-road-23469639,https://sg2-cdn.pgimgs.com/listing/23469639/UPHO.128419753.R400X300/620-Bedok-Reservoir-Road-Bedok-Upper-East-Coast-Singapore.jpg,620 Bedok Reservoir Road,44.9651148747201,1980,58,235000,1.33433432226397,103.917712559288,16,Bedok North,0.110541143467639,Djitsun   Mall   Bedok    Singapore ,1.61106830473094,10.0196377218645,0.427175608359537,0.3439002313026
23468438,2 ROOM,https://www.propertyguru.com.sg/listing/hdb-for-sale-116-ang-mo-kio-avenue-4-23468438,https://sg2-cdn.pgimgs.com/listing/23468438/UPHO.128403727.R400X300/116-Ang-Mo-Kio-Avenue-4-Ang-Mo-Kio-Bishan-Thomson-Singapore.jpg,116 Ang Mo Kio Avenue 4,44.0360835756557,1977,55,240000,1.3733463501491,103.8364593481,20,Yio Chu Kang,1.32721316912382,Broadway   Plaza    Singapore ,1.06921241141615,7.62370787878683,0.336897365400805,0.368016598588262
23466267,2 ROOM,https://www.propertyguru.com.sg/listing/hdb-for-sale-8-lorong-lew-lian-23466267,https://sg2-cdn.pgimgs.com/listing/23466267/UPHO.128371347.R400X300/8-Lorong-Lew-Lian-Hougang-Punggol-Sengkang-Singapore.jpg,8 Lorong Lew Lian,44.0360835756557,1977,55,270000,1.3489086885502,103.876715676102,19,Serangoon,0.358491712617768,Upper   Serangoon   Shopping   Centre    Singapore ,0.560031263389703,6.93408625695031,1.53722013000016,0.449627638123925
22763486,2 ROOM,https://www.propertyguru.com.sg/listing/hdb-for-sale-38-bedok-south-road-22763486,https://sg2-cdn.pgimgs.com/listing/22763486/UPHO.127976547.R400X300/38-Bedok-South-Road-Bedok-Upper-East-Coast-Singapore.jpg,38 Bedok South Road,44.0360835756557,1977,55,258000,1.32082560856834,103.938994585574,16,Bedok,1.04053450123037,Bedok   Point    Singapore ,0.857576484672217,11.96755461767,0.393074684247141,0.47142714949702
23456390,2 ROOM,https://www.propertyguru.com.sg/listing/hdb-for-sale-96-commonwealth-crescent-23456390,https://sg2-cdn.pgimgs.com/listing/23456390/UPHO.128241699.R400X300/96-Commonwealth-Crescent-Alexandra-Commonwealth-Singapore.jpg,96 Commonwealth Crescent,46.9160806027555,1964,42,260000,1.30619182602956,103.8011938191,3,Commonwealth,0.525140215997569,Holland   Village   Shopping   Mall    Singapore ,0.802483616674353,3.48595220080392,0.129623478856957,0.590702003525062
20529792,2 ROOM,https://www.propertyguru.com.sg/listing/hdb-for-sale-10-jalan-kukoh-20529792,https://sg1-cdn.pgimgs.com/listing/20529792/UPHO.109620378.R400X300/10-Jalan-Kukoh-Alexandra-Commonwealth-Singapore.jpg,10 Jalan Kukoh,52.9547840466745,1970,48,290000,1.28697383443979,103.839075823483,3,Chinatown,0.572318261800564,People's   Park   Complex    Singapore ,0.502251375993633,2.12191845500276,0.169255610873618,0.278656441026124
23456356,2 ROOM,https://www.propertyguru.com.sg/listing/hdb-for-sale-96-commonwealth-crescent-23456356,https://sg2-cdn.pgimgs.com/listing/23456356/UPHO.128241121.R400X300/96-Commonwealth-Crescent-Alexandra-Commonwealth-Singapore.jpg,96 Commonwealth Crescent,46.9160806027555,1964,42,260000,1.30619182602956,103.8011938191,3,Commonwealth,0.525140215997569,Holland   Village   Shopping   Mall    Singapore ,0.802483616674353,3.48595220080392,0.129623478856957,0.590702003525062
23451570,2 ROOM,https://www.propertyguru.com.sg/listing/hdb-for-sale-106-bedok-north-avenue-4-23451570,https://sg2-cdn.pgimgs.com/listing/23451570/UPHO.128177811.R400X300/106-Bedok-North-Avenue-4-Bedok-Upper-East-Coast-Singapore.jpg,106 Bedok North Avenue 4,43.6644710560299,1977,55,268000,1.33445895034227,103.937087136194,16,Bedok Reservoir,0.505801047557042,East   Village    Singapore ,1.05618009489331,12.0795354999523,0.329967404989701,0.209243866113075
23430060,2 ROOM,https://www.propertyguru.com.sg/listing/hdb-for-sale-180b-boon-lay-drive-23430060,https://sg2-cdn.pgimgs.com/listing/23430060/UPHO.127896743.R400X300/180B-Boon-Lay-Drive-Boon-Lay-Jurong-Tuas-Singapore.jpg,180B Boon Lay Drive,47.008983732662,2012,90,260000,1.34783388779636,103.709071002443,22,Boon Lay,1.0865212728478,Boon   Lay   Shopping   Centre    Singapore ,0.411538870655085,14.5305489274628,0.527984857538515,0.411538870655085
23276068,2 ROOM,https://www.propertyguru.com.sg/listing/hdb-for-sale-43-moh-guan-terrace-23276068,https://sg2-cdn.pgimgs.com/listing/23276068/UPHO.125981515.R400X300/43-Moh-Guan-Terrace-Alexandra-Commonwealth-Singapore.jpg,43 Moh Guan Terrace,66.983156662548,1973,51,600000,1.28467056650891,103.831049307715,3,Tiong Bahru,0.500968369817769,Tiong   Bahru   Plaza    Singapore ,0.430556192014922,2.25513356043968,0.152563437585627,0.1952809544861
23451021,2 ROOM,https://www.propertyguru.com.sg/listing/hdb-for-sale-50-havelock-road-23451021,https://sg2-cdn.pgimgs.com/listing/23451021/UPHO.128171035.R400X300/50-Havelock-Road-Alexandra-Commonwealth-Singapore.jpg,50 Havelock Road,42.9212460167783,1973,51,260000,1.28977813910145,103.826793749912,3,Tiong Bahru,0.358850789152847,Tiong   Bahru   Plaza    Singapore ,0.392351355026486,1.79790041274179,0.124234317167968,0.001802649781642
23469771,2 ROOM,https://www.propertyguru.com.sg/listing/hdb-for-sale-81-tiong-poh-road-23469771,https://sg2-cdn.pgimgs.com/listing/23469771/UPHO.128421545.R400X300/81-Tiong-Poh-Road-Alexandra-Commonwealth-Singapore.jpg,81 Tiong Poh Road,83.6128169158019,1967,45,1150000,1.28259669409394,103.832878803965,3,Outram Park,0.774106373404725,Tiong   Bahru   Plaza    Singapore ,0.723402143381987,2.48007411911635,0.237814441777911,0.2456622738866
23461524,2 ROOM,https://www.propertyguru.com.sg/listing/hdb-for-sale-54-lorong-5-toa-payoh-23461524,https://sg2-cdn.pgimgs.com/listing/23461524/UPHO.128310469.R400X300/54-Lorong-5-Toa-Payoh-Balestier-Toa-Payoh-Singapore.jpg,54 Lorong 5 Toa Payoh,42.0851178476203,1967,45,259999,1.33735666370269,103.850390748824,12,Braddell,0.509968223753807,HDB   Hub   Singapore ,0.683317515988047,4.11961729970062,0.155075423889101,0.420338433442429
23458853,2 ROOM,https://www.propertyguru.com.sg/listing/hdb-for-sale-120-lorong-2-toa-payoh-23458853,https://sg1-cdn.pgimgs.com/listing/23458853/UPHO.128276256.R400X300/120-Lorong-2-Toa-Payoh-Balestier-Toa-Payoh-Singapore.jpg,120 Lorong 2 Toa Payoh,40.0412489896785,1967,45,235000,1.33913568992412,103.845562921008,12,Braddell,0.232061018751227,HDB   Hub   Singapore ,0.800559986806163,4.07364790083671,0.148279272639228,0.729595377962801
23457897,2 ROOM,https://www.propertyguru.com.sg/listing/hdb-for-sale-40-beo-crescent-23457897,https://sg2-cdn.pgimgs.com/listing/23457897/UPHO.128263333.R400X300/40-Beo-Crescent-Alexandra-Commonwealth-Singapore.jpg,40 Beo Crescent,50.9109151887327,1971,49,240000,1.2890578915448,103.827513018252,3,Tiong Bahru,0.285114652328316,Tiong   Bahru   Plaza    Singapore ,0.303160177594744,1.84733747227839,0.027243672561394,0.111398854875333
23221629,2 ROOM,https://www.propertyguru.com.sg/listing/hdb-for-sale-2-jalan-bukit-ho-swee-23221629,https://sg2-cdn.pgimgs.com/listing/23221629/UPHO.125222615.R400X300/2-Jalan-Bukit-Ho-Swee-Alexandra-Commonwealth-Singapore.jpg,2 Jalan Bukit Ho Swee,34.0025455457594,1962,40,285000,1.28728822015939,103.831873006286,3,Tiong Bahru,0.552655964453502,Tiong   Bahru   Plaza    Singapore ,0.492116295697711,1.95942923165995,0.265452337071896,0.397545250703696
23065470,2 ROOM,https://www.propertyguru.com.sg/listing/hdb-for-sale-77-indus-road-23065470,https://sg2-cdn.pgimgs.com/listing/23065470/UPHO.123012137.R400X300/77-Indus-Road-Alexandra-Commonwealth-Singapore.jpg,77 Indus Road,74.9728258345024,1972,50,450000,1.29113483646901,103.826764453591,3,Tiong Bahru,0.509700267386648,Tiong   Bahru   Plaza    Singapore ,0.541183796022371,1.65894933942944,0.264790097723262,0.152406258633017
23447380,2 ROOM,https://www.propertyguru.com.sg/listing/hdb-for-sale-82-commonwealth-close-23447380,https://sg1-cdn.pgimgs.com/listing/23447380/UPHO.128123420.R400X300/82-Commonwealth-Close-Alexandra-Commonwealth-Singapore.jpg,82 Commonwealth Close,45.987049303691,1964,42,260999,1.30422175099776,103.800399923418,3,Commonwealth,0.30405570838787,IMM Singapore,0.780721857780019,3.57202748100795,0.317264347375576,0.363034562649197
23443121,2 ROOM,https://www.propertyguru.com.sg/listing/hdb-for-sale-28-hoy-fatt-road-23443121,https://sg1-cdn.pgimgs.com/listing/23443121/UPHO.128065886.R400X300/28-Hoy-Fatt-Road-Alexandra-Commonwealth-Singapore.jpg,28 Hoy Fatt Road,46.9160806027555,1967,45,298000,1.28675654367639,103.810121713045,3,Redhill,0.808864132491339,Alexandra   Central    Singapore ,0.547094278532778,3.20495986988822,0.222706392675715,0.206944754440707
23441687,2 ROOM,https://www.propertyguru.com.sg/listing/hdb-for-sale-30-balam-road-23441687,https://sg2-cdn.pgimgs.com/listing/23441687/UPHO.128047689.R400X300/30-Balam-Road-Macpherson-Potong-Pasir-Singapore.jpg,30 Balam Road,45.987049303691,1965,43,230000,1.32965461509134,103.887183600084,13,MacPherson,0.440689955262142,Grantral   Mall    Singapore ,0.453929171187378,6.67066369207834,0.200859773539058,0.129553078299732
23391914,2 ROOM,https://www.propertyguru.com.sg/listing/hdb-for-sale-20-jalan-klinik-23391914,https://sg2-cdn.pgimgs.com/listing/23391914/UPHO.127406541.R400X300/20-Jalan-Klinik-Alexandra-Commonwealth-Singapore.jpg,20 Jalan Klinik,48.0309181616329,1963,41,280000,1.28811451810468,103.829040334276,3,Tiong Bahru,0.289413971881442,Tiong   Bahru   Plaza    Singapore ,0.258292944482144,1.90599107364989,0.065907079371245,0.290808307414267
23431333,2 ROOM,https://www.propertyguru.com.sg/listing/hdb-for-sale-168-stirling-road-23431333,https://sg2-cdn.pgimgs.com/listing/23431333/UPHO.127911691.R400X300/168-Stirling-Road-Alexandra-Commonwealth-Singapore.jpg,168 Stirling Road,71.5354100279639,1970,48,350000,1.29002050735811,103.80318804437,3,Queenstown,0.617611338329148,Anchorpoint    Singapore ,0.255849323201538,3.65686958593692,0.358966459047408,0.099331441764983
23425831,2 ROOM,https://www.propertyguru.com.sg/listing/hdb-for-sale-10-jalan-bukit-ho-swee-23425831,https://sg2-cdn.pgimgs.com/listing/23425831/UPHO.127843435.R400X300/10-Jalan-Bukit-Ho-Swee-Alexandra-Commonwealth-Singapore.jpg,10 Jalan Bukit Ho Swee,34.0025455457594,1962,40,250000,1.28745837020187,103.832675765986,3,Tiong Bahru,0.643734972436184,Tiong   Bahru   Plaza    Singapore ,0.583337189732106,1.93924027390198,0.30956695759429,0.375407390854193
23456042,3 ROOM,https://www.propertyguru.com.sg/listing/hdb-for-sale-6-teck-whye-avenue-23456042,https://sg2-cdn.pgimgs.com/listing/23456042/UPHO.128237539.R400X300/6-Teck-Whye-Avenue-Dairy-Farm-Bukit-Panjang-Choa-Chu-Kang-Singapore.jpg,6 Teck Whye Avenue,73.9508914055315,1983,61,320000,1.38158682710709,103.753828251753,23,Teck Whye,0.53947104253092,Teck   Whye   Shopping   Centre    Singapore ,0.22862147930203,12.2167990058245,4.59074990322164,0.19018886073725
23453839,3 ROOM,https://www.propertyguru.com.sg/listing/hdb-for-sale-665c-punggol-drive-23453839,https://sg2-cdn.pgimgs.com/listing/23453839/UPHO.128206993.R400X300/665C-Punggol-Drive-Hougang-Punggol-Sengkang-Singapore.jpg,665C Punggol Drive,67.9121879616124,2015,93,430000,1.4014916460804,103.914459128885,19,Oasis,0.211776710985341,Oasis   Terraces    Singapore ,0.183323600985651,14.0826838123425,5.67334182203186,0.287100642756453
23444399,3 ROOM,https://www.propertyguru.com.sg/listing/hdb-for-sale-315b-punggol-way-23444399,https://sg2-cdn.pgimgs.com/listing/23444399/UPHO.128331449.R400X300/315B-Punggol-Way-Hougang-Punggol-Sengkang-Singapore.jpg,315B Punggol Way,66.983156662548,2016,94,465000,1.40795602683384,103.896400767911,19,Sumang,0.252407943271649,Waterway   Point    Singapore ,0.640861074439542,13.4811507843456,5.55307831546462,0.286598551679747
23391049,3 ROOM,https://www.propertyguru.com.sg/listing/hdb-for-sale-120a-edgedale-plains-23391049,https://sg2-cdn.pgimgs.com/listing/23391049/UPHO.127395823.R400X300/120A-Edgedale-Plains-Hougang-Punggol-Sengkang-Singapore.jpg,120A Edgedale Plains,68.0050910915189,2016,94,390000,1.39451217943806,103.907964274268,19,Meridian,0.295130260205066,Rivervale   Mall    Singapore ,0.464463310168421,13.0239126657217,4.62982391761981,0.24257603833737
23399269,3 ROOM,https://www.propertyguru.com.sg/listing/hdb-for-sale-113c-mcnair-road-23399269,https://sg2-cdn.pgimgs.com/listing/23399269/UPHO.127506501.R400X300/113C-Mcnair-Road-Balestier-Toa-Payoh-Singapore.jpg,113C Mcnair Road,68.0050910915189,2016,94,680000,1.32088235344697,103.860331710143,12,Boon Keng,0.171413857157962,City   Square   Mall    Singapore ,1.15228704495607,3.56572344105471,0.351704176140355,0.133565868860502
23459127,3 ROOM,https://www.propertyguru.com.sg/listing/hdb-for-sale-116a-jalan-tenteram-23459127,https://sg1-cdn.pgimgs.com/listing/23459127/UPHO.128288922.R400X300/116A-Jalan-Tenteram-Balestier-Toa-Payoh-Singapore.jpg,116A Jalan Tenteram,66.983156662548,2016,94,545000,1.3270531250321,103.860558381575,12,Boon Keng,0.783693548492083,The   Poiz    Singapore ,0.970100924475522,3.97250186385261,0.756282173863831,0.405970407183972
23470168,3 ROOM,https://www.propertyguru.com.sg/listing/hdb-for-sale-61c-strathmore-avenue-23470168,https://sg2-cdn.pgimgs.com/listing/23470168/UPHO.128427221.R400X300/61C-Strathmore-Avenue-Alexandra-Commonwealth-Singapore.jpg,61C Strathmore Avenue,69.0270255204898,2010,88,620000,1.29423642591379,103.812035249623,3,Queenstown,0.685408987712203,Anchorpoint    Singapore ,1.00034160486059,2.56781480833899,0.919031137028853,0.208261516586121
23459787,3 ROOM,https://www.propertyguru.com.sg/listing/hdb-for-sale-663a-punggol-drive-23459787,https://sg1-cdn.pgimgs.com/listing/23459787/UPHO.128287536.R400X300/663A-Punggol-Drive-Hougang-Punggol-Sengkang-Singapore.jpg,663A Punggol Drive,64.9392878046061,2015,93,400000,1.40024347718059,103.91708004,19,Kadaloor,0.090914150639466,Oasis   Terraces    Singapore ,0.500014811456625,14.1687003539824,5.72903234189004,0.143398402437824
23469917,3 ROOM,https://www.propertyguru.com.sg/listing/hdb-for-sale-671a-yishun-avenue-4-23469917,https://sg2-cdn.pgimgs.com/listing/23469917/UPHO.128423915.R400X300/671A-Yishun-Avenue-4-Sembawang-Yishun-Singapore.jpg,671A Yishun Avenue 4,68.0050910915189,2016,94,365000,1.41897568011422,103.842333395726,27,Khatib,1.05232519295081,Wisteria   Mall    Singapore ,0.163265025843381,12.7316828126742,2.10410754926461,0.778270710264098
23172775,3 ROOM,https://www.propertyguru.com.sg/listing/hdb-for-sale-87-dawson-road-23172775,https://sg2-cdn.pgimgs.com/listing/23172775/UPHO.124506699.R400X300/87-Dawson-Road-Alexandra-Commonwealth-Singapore.jpg,87 Dawson Road,64.9392878046061,2015,93,570000,1.29573042684509,103.809759937443,3,Queenstown,0.439489065654806,Anchorpoint    Singapore ,0.951248682449239,2.72830462406771,0.811055215620367,0.0456751606981
22437455,3 ROOM,https://www.propertyguru.com.sg/listing/hdb-for-sale-107-towner-road-22437455,https://sg2-cdn.pgimgs.com/listing/22437455/UPHO.115815349.R400X300/107-Towner-Road-Balestier-Toa-Payoh-Singapore.jpg,107 Towner Road,68.8412192606769,1982,60,480000,1.31979508625985,103.860435814245,12,Boon Keng,0.13946851518378,City   Square   Mall    Singapore ,1.04477784115301,3.5172305057537,0.294536990170178,0.234177482901912
23408341,3 ROOM,https://www.propertyguru.com.sg/listing/hdb-for-sale-15-farrer-park-road-23408341,https://sg2-cdn.pgimgs.com/listing/23408341/UPHO.127631431.R400X300/15-Farrer-Park-Road-Farrer-Park-Serangoon-Rd-Singapore.jpg,15 Farrer Park Road,61.9663876475999,2002,80,523888,1.31104346812008,103.851660614786,8,Farrer Park,0.400650455674876,Serangoon   Plaza    Singapore ,0.388644638888887,2.23429422407059,0.553508326312199,0.45707759523285
23445951,3 ROOM,https://www.propertyguru.com.sg/listing/hdb-for-sale-807a-chai-chee-road-23445951,https://sg2-cdn.pgimgs.com/listing/23445951/UPHO.128102793.R400X300/807A-Chai-Chee-Road-Bedok-Upper-East-Coast-Singapore.jpg,807A Chai Chee Road,66.983156662548,2015,93,450000,1.32707387863851,103.923188202853,16,Bedok,0.849717555209346,Djitsun   Mall   Bedok    Singapore ,0.722253549814699,10.3759035638149,0.565794565757882,0.28886221834345
23405793,3 ROOM,https://www.propertyguru.com.sg/listing/hdb-for-sale-476a-upper-serangoon-view-23405793,https://sg1-cdn.pgimgs.com/listing/23405793/UPHO.127589676.R400X300/476A-Upper-Serangoon-View-Hougang-Punggol-Sengkang-Singapore.jpg,476A Upper Serangoon View,66.983156662548,2014,92,480000,1.37676038157719,103.904050364711,19,Kangkar,0.827359559104534,Rivervale   Plaza    Singapore ,0.998923829631134,11.2726285677224,2.80284770249654,0.083675251258596
23415509,3 ROOM,https://www.propertyguru.com.sg/listing/hdb-for-sale-28b-dover-crescent-23415509,https://sg1-cdn.pgimgs.com/listing/23415509/UPHO.127926826.R400X300/28B-Dover-Crescent-Buona-Vista-West-Coast-Clementi-New-Town-Singapore.jpg,28B Dover Crescent,69.9560568195543,2009,87,588000,1.30544397285961,103.781869025225,5,Dover,0.757011765416162,Rochester   Mall    Singapore ,0.731226393720997,5.6315734582401,0.933412724728074,0.109759965821475
21986603,3 ROOM,https://www.propertyguru.com.sg/listing/hdb-for-sale-5a-upper-boon-keng-road-21986603,https://sg2-cdn.pgimgs.com/listing/21986603/UPHO.110657045.R400X300/5A-Upper-Boon-Keng-Road-Eunos-Geylang-Paya-Lebar-Singapore.jpg,5A Upper Boon Keng Road,66.983156662548,2010,88,500000,1.31327536019089,103.873489088653,14,Kallang,0.304906113419326,Kallang   Wave   Mall    Singapore ,1.05200901522428,4.6481099710204,0.284852198751059,0.125918646058476
23468928,3 ROOM,https://www.propertyguru.com.sg/listing/hdb-for-sale-127c-kim-tian-road-23468928,https://sg2-cdn.pgimgs.com/listing/23468928/UPHO.128410461.R400X300/127C-Kim-Tian-Road-Alexandra-Commonwealth-Singapore.jpg,127C Kim Tian Road,61.9663876475999,2011,89,628000,1.28152280420003,103.830035757166,3,Tiong Bahru,0.655986287312887,Tiong   Bahru   Plaza    Singapore ,0.601873436168973,2.61386401112603,0.440522699560535,0.374319289945214
22821298,3 ROOM,https://www.propertyguru.com.sg/listing/hdb-for-sale-528-bedok-north-street-3-22821298,https://sg1-cdn.pgimgs.com/listing/22821298/UPHO.119906568.R400X300/528-Bedok-North-Street-3-Bedok-Upper-East-Coast-Singapore.jpg,528 Bedok North Street 3,81.9405605774859,1979,57,380000,1.33490287587396,103.927838167286,16,Bedok Reservoir,0.611274495770568,Djitsun   Mall   Bedok    Singapore ,1.00344169842724,11.1084214801681,0.364114081111724,0.380297654167155
23458522,3 ROOM,https://www.propertyguru.com.sg/listing/hdb-for-sale-811a-choa-chu-kang-avenue-7-23458522,https://sg2-cdn.pgimgs.com/listing/23458522/UPHO.128271729.R400X300/811A-Choa-Chu-Kang-Avenue-7-Dairy-Farm-Bukit-Panjang-Choa-Chu-Kang-Singapore.jpg,811A Choa Chu Kang Avenue 7,68.0050910915189,2016,94,388000,1.3737308481902,103.745929784531,23,Keat Hong,0.643854046658965,Keat   Hong   Shopping   Centre    Singapore ,0.446800108802492,12.2983239112105,3.47767228738156,0.446799185099987
23468918,3 ROOM,https://www.propertyguru.com.sg/listing/hdb-for-sale-65-kallang-bahru-23468918,https://sg2-cdn.pgimgs.com/listing/23468918/UPHO.128410421.R400X300/65-Kallang-Bahru-Balestier-Toa-Payoh-Singapore.jpg,65 Kallang Bahru,74.9728258345024,1973,51,330000,1.31969547154615,103.868364964604,12,Geylang Bahru,0.396836820657327,Aperia    Singapore ,1.2039356455571,4.31057814190516,0.266133430523979,0.267377888141014
23423381,3 ROOM,https://www.propertyguru.com.sg/listing/hdb-for-sale-128-yishun-street-11-23423381,https://sg2-cdn.pgimgs.com/listing/23423381/UPHO.127812685.R400X300/128-Yishun-Street-11-Sembawang-Yishun-Singapore.jpg,128 Yishun Street 11,73.9508914055315,1984,62,368000,1.43387793728634,103.831302218611,27,Yishun,0.626380772906622,Northpoint   City    Singapore ,0.857404827270679,14.3426118009228,0.409830232767613,0.459396014011015
23328512,3 ROOM,https://www.propertyguru.com.sg/listing/hdb-for-sale-285-tampines-street-22-23328512,https://sg1-cdn.pgimgs.com/listing/23328512/UPHO.126621800.R400X300/285-Tampines-Street-22-Pasir-Ris-Tampines-Singapore.jpg,285 Tampines Street 22,73.9508914055315,1983,61,428000,1.35001074194261,103.952816059954,18,Simei,0.755481112701397,Eastpoint   Mall    Singapore ,0.826037014377526,14.2821122339015,1.02815595091331,0.30180777985639
23468751,3 ROOM,https://www.propertyguru.com.sg/listing/hdb-for-sale-803b-keat-hong-close-23468751,https://sg1-cdn.pgimgs.com/listing/23468751/UPHO.128407824.R400X300/803B-Keat-Hong-Close-Dairy-Farm-Bukit-Panjang-Choa-Chu-Kang-Singapore.jpg,803B Keat Hong Close,67.9121879616124,2015,93,398000,1.37381927100148,103.743367182453,23,South View,0.751423923256713,Keat   Hong   Shopping   Centre    Singapore ,0.418110242597821,12.5285695217789,3.42488756787089,0.418109279046118
23376102,3 ROOM,https://www.propertyguru.com.sg/listing/hdb-for-sale-91a-telok-blangah-street-31-23376102,https://sg1-cdn.pgimgs.com/listing/23376102/UPHO.127188502.R400X300/91A-Telok-Blangah-Street-31-Harbourfront-Telok-Blangah-Singapore.jpg,91A Telok Blangah Street 31,68.0050910915189,2017,95,709000,1.2766608269826,103.807130946622,4,Labrador Park,0.711895613133494,Alexandra   Retail   Centre    Singapore ,0.712488019161148,4.22227697764189,0.336223800691468,0.416047542329256
23457816,3 ROOM,https://www.propertyguru.com.sg/listing/hdb-for-sale-108-bukit-purmei-road-23457816,https://sg2-cdn.pgimgs.com/listing/23457816/UPHO.128262073.R400X300/108-Bukit-Purmei-Road-Harbourfront-Telok-Blangah-Singapore.jpg,108 Bukit Purmei Road,74.0437945354379,1984,62,385000,1.2733573140352,103.825345821846,4,HarbourFront,1.03006038217928,Vivo   City    Singapore ,1.05957110690397,3.5967993451084,0.381824095951961,0.830121304118066
23434799,3 ROOM,https://www.propertyguru.com.sg/listing/hdb-for-sale-87-dawson-road-23434799,https://sg2-cdn.pgimgs.com/listing/23434799/UPHO.127955317.R400X300/87-Dawson-Road-Alexandra-Commonwealth-Singapore.jpg,87 Dawson Road,65.0321909345126,2015,93,718000,1.29573042684509,103.809759937443,3,Queenstown,0.439489065654806,Anchorpoint    Singapore ,0.951248682449239,2.72830462406771,0.811055215620367,0.0456751606981
23413125,3 ROOM,https://www.propertyguru.com.sg/listing/hdb-for-sale-15-farrer-park-road-23413125,https://sg1-cdn.pgimgs.com/listing/23413125/UPHO.127685726.R400X300/15-Farrer-Park-Road-Farrer-Park-Serangoon-Rd-Singapore.jpg,15 Farrer Park Road,61.9663876475999,2002,80,499000,1.31104346812008,103.851660614786,8,Farrer Park,0.400650455674876,Serangoon   Plaza    Singapore ,0.388644638888887,2.23429422407059,0.553508326312199,0.45707759523285
23369479,3 ROOM,https://www.propertyguru.com.sg/listing/hdb-for-sale-7-boon-keng-road-23369479,https://sg2-cdn.pgimgs.com/listing/23369479/UPHO.127101331.R400X300/7-Boon-Keng-Road-Balestier-Toa-Payoh-Singapore.jpg,7 Boon Keng Road,69.9560568195543,2011,89,618000,1.31678922529742,103.861781918434,12,Boon Keng,0.367412101732005,Aperia    Singapore ,0.824914810638306,3.51088018804161,0.303101383769537,0.599632178194661
23376127,3 ROOM,https://www.propertyguru.com.sg/listing/hdb-for-sale-12-kampong-arang-road-23376127,https://sg1-cdn.pgimgs.com/listing/23376127/UPHO.127185510.R400X300/12-Kampong-Arang-Road-East-Coast-Marine-Parade-Singapore.jpg,12 Kampong Arang Road,102.936667936343,1982,60,560000,1.30082885462595,103.883694825656,15,Mountbatten,0.589631162666319,Leisure   Park   Kallang    Singapore ,0.803800724391636,5.70631425035875,0.172548834762968,0.785152140452094
23319448,3 ROOM,https://www.propertyguru.com.sg/listing/hdb-for-sale-311b-clementi-avenue-4-23319448,https://sg1-cdn.pgimgs.com/listing/23319448/UPHO.126515244.R400X300/311B-Clementi-Avenue-4-Buona-Vista-West-Coast-Clementi-New-Town-Singapore.jpg,311B Clementi Avenue 4,60.1083250494709,2015,93,606000,1.31944669077179,103.765649446368,5,Clementi,0.503957600281677,The   Clementi   Mall    Singapore ,0.455304919723982,7.60828064311265,0.721117461213004,0.427500773441841
23461730,3 ROOM,https://www.propertyguru.com.sg/listing/hdb-for-sale-296b-bukit-batok-street-22-23461730,https://sg2-cdn.pgimgs.com/listing/23461730/UPHO.128312709.R400X300/296B-Bukit-Batok-Street-22-Dairy-Farm-Bukit-Panjang-Choa-Chu-Kang-Singapore.jpg,296B Bukit Batok Street 22,67.5405754419866,2017,95,420000,1.34369381417078,103.747356802144,23,Bukit Batok,0.647455844350144,West   Mall    Singapore ,0.741343454504758,10.4042616744219,1.05689224125145,0.577566006383958
21866313,3 ROOM,https://www.propertyguru.com.sg/listing/hdb-for-sale-138c-yuan-ching-road-21866313,https://sg1-cdn.pgimgs.com/listing/21866313/UPHO.108837964.R400X300/138C-Yuan-Ching-Road-Boon-Lay-Jurong-Tuas-Singapore.jpg,138C Yuan Ching Road,66.983156662548,2014,92,448000,1.32843797727643,103.723795893377,22,Lakeside,1.79107444062134,Taman   Jurong   Shopping   Centre    Singapore ,0.803050073964816,12.3671448967607,0.735327652777796,0.3662959680561
23411023,3 ROOM,https://www.propertyguru.com.sg/listing/hdb-for-sale-668-chander-road-23411023,https://sg1-cdn.pgimgs.com/listing/23411023/UPHO.127895452.R400X300/668-Chander-Road-Farrer-Park-Serangoon-Rd-Singapore.jpg,668 Chander Road,72.9289569765605,1984,62,438000,1.30758124026887,103.851478219734,8,Little India,0.251750930955325,Tekka   Centre    Singapore ,0.17799062337485,2.12797035829751,0.183497302838358,0.275417022533127
22926693,3 ROOM,https://www.propertyguru.com.sg/listing/hdb-for-sale-530b-pasir-ris-drive-1-22926693,https://sg1-cdn.pgimgs.com/listing/22926693/UPHO.126550676.R400X300/530B-Pasir-Ris-Drive-1-Pasir-Ris-Tampines-Singapore.jpg,530B Pasir Ris Drive 1,65.0321909345126,2015,93,539000,1.37168953845761,103.949502101347,18,Pasir Ris,0.17264482658493,White   Sands    Singapore ,0.071320749758633,14.9751746996914,2.93165882044514,0.098075975693624
23428149,3 ROOM,https://www.propertyguru.com.sg/listing/hdb-for-sale-635-veerasamy-road-23428149,https://sg1-cdn.pgimgs.com/listing/23428149/UPHO.127873926.R400X300/635-Veerasamy-Road-Farrer-Park-Serangoon-Rd-Singapore.jpg,635 Veerasamy Road,71.9999256774961,1984,62,480000,1.30658850181779,103.855218716278,8,Jalan Besar,0.118028592679458,Mustafa   Shopping   Centre    Singapore ,0.382648024198826,2.52975826047576,0.203783628785982,0.254681133467793
23467389,3 ROOM,https://www.propertyguru.com.sg/listing/hdb-for-sale-455a-ang-mo-kio-street-44-23467389,https://sg1-cdn.pgimgs.com/listing/23467389/UPHO.128386700.R400X300/455A-Ang-Mo-Kio-Street-44-Ang-Mo-Kio-Bishan-Thomson-Singapore.jpg,455A Ang Mo Kio Street 44,67.9121879616124,1982,60,595000,1.36817376241157,103.857520553516,20,Ang Mo Kio,0.905516937987743,myVillage Singapore,0.90072778026147,7.56477388739438,0.13016787786283,0.593666837172818
23445056,3 ROOM,https://www.propertyguru.com.sg/listing/hdb-for-sale-204-tampines-street-21-23445056,https://sg2-cdn.pgimgs.com/listing/23445056/UPHO.128089659.R400X300/204-Tampines-Street-21-Pasir-Ris-Tampines-Singapore.jpg,204 Tampines Street 21,81.0115292784214,2015,93,430000,1.35217984684251,103.951695356215,18,Tampines East,0.622153004623211,Tampines   Mall    Singapore ,0.81415942116639,14.2527259126856,1.06279217464123,0.203218266560633
23227802,3 ROOM,https://www.propertyguru.com.sg/listing/hdb-for-sale-87-dawson-road-23227802,https://sg1-cdn.pgimgs.com/listing/23227802/UPHO.125306042.R400X300/87-Dawson-Road-Alexandra-Commonwealth-Singapore.jpg,87 Dawson Road,64.9392878046061,2016,94,690000,1.29573042684509,103.809759937443,3,Queenstown,0.439489065654806,Anchorpoint    Singapore ,0.951248682449239,2.72830462406771,0.811055215620367,0.0456751606981
23432110,3 ROOM,https://www.propertyguru.com.sg/listing/hdb-for-sale-122b-edgedale-plains-23432110,https://sg2-cdn.pgimgs.com/listing/23432110/UPHO.127920975.R400X300/122B-Edgedale-Plains-Hougang-Punggol-Sengkang-Singapore.jpg,122B Edgedale Plains,68.0050910915189,2014,92,399000,1.39415009117251,103.909595974135,19,Meridian,0.32684526952769,Punggol   Plaza    Singapore ,0.391747721201661,13.1109379950386,4.69424307862046,0.273451232200479
23457024,3 ROOM,https://www.propertyguru.com.sg/listing/hdb-for-sale-137-potong-pasir-avenue-3-23457024,https://sg2-cdn.pgimgs.com/listing/23457024/UPHO.128250799.R400X300/137-Potong-Pasir-Avenue-3-Macpherson-Potong-Pasir-Singapore.jpg,137 Potong Pasir Avenue 3,74.0437945354379,1983,61,438000,1.33385759374196,103.865845367722,13,Potong Pasir,0.43153494855947,The   Poiz    Singapore ,0.378216151919834,4.9081341500288,0.991126385444334,0.199011690324005
23448100,3 ROOM,https://www.propertyguru.com.sg/listing/hdb-for-sale-661a-edgedale-plains-23448100,https://sg1-cdn.pgimgs.com/listing/23448100/UPHO.128133544.R400X300/661A-Edgedale-Plains-Hougang-Punggol-Sengkang-Singapore.jpg,661A Edgedale Plains,66.983156662548,2016,94,438000,1.40303056639257,103.917080721325,19,Kadaloor,0.382614519574088,Oasis   Terraces    Singapore ,0.425822170856377,14.4021098521498,5.97948202444752,0.412967119989534
23465602,3 ROOM,https://www.propertyguru.com.sg/listing/hdb-for-sale-194b-bukit-batok-west-avenue-6-23465602,https://sg1-cdn.pgimgs.com/listing/23465602/UPHO.128378800.R400X300/194B-Bukit-Batok-West-Avenue-6-Dairy-Farm-Bukit-Panjang-Choa-Chu-Kang-Singapore.jpg,194B Bukit Batok West Avenue 6,67.9121879616124,2016,94,500000,1.3451328390019,103.744861953262,23,Bukit Batok,0.684479338987968,West   Mall    Singapore ,0.733999800680161,10.7230262237649,0.799830073997342,0.281861372287245
23448532,3 ROOM,https://www.propertyguru.com.sg/listing/hdb-for-sale-70b-telok-blangah-heights-23448532,https://sg1-cdn.pgimgs.com/listing/23448532/UPHO.128139016.R400X300/70B-Telok-Blangah-Heights-Harbourfront-Telok-Blangah-Singapore.jpg,70B Telok Blangah Heights,68.0050910915189,1983,61,648000,1.27674945693288,103.810541543465,4,Telok Blangah,0.669076029735806,Alexandra   Retail   Centre    Singapore ,1.06905547942394,3.97101216477539,0.468527284850383,0.414812953153664
23425825,3 ROOM,https://www.propertyguru.com.sg/listing/hdb-for-sale-301-hougang-avenue-5-23425825,https://sg1-cdn.pgimgs.com/listing/23425825/UPHO.128015906.R400X300/301-Hougang-Avenue-5-Hougang-Punggol-Sengkang-Singapore.jpg,301 Hougang Avenue 5,73.9508914055315,2016,94,378000,1.36778751494033,103.89392989782,19,Hougang,0.431282742048049,The   Midtown    Singapore ,0.327641280745962,9.77228619857663,1.30332995471854,0.222286824592201
23336781,3 ROOM,https://www.propertyguru.com.sg/listing/hdb-for-sale-10b-bendemeer-road-23336781,https://sg2-cdn.pgimgs.com/listing/23336781/UPHO.127869043.R400X300/10B-Bendemeer-Road-Balestier-Toa-Payoh-Singapore.jpg,10B Bendemeer Road,68.0050910915189,2016,94,640000,1.31547715332072,103.860312930116,12,Bendemeer,0.368857625063136,City   Square   Mall    Singapore ,0.626571354873126,3.30547668597971,0.513422643590032,0.426467621866051
23349662,3 ROOM,https://www.propertyguru.com.sg/listing/hdb-for-sale-122a-edgedale-plains-23349662,https://sg1-cdn.pgimgs.com/listing/23349662/UPHO.126872032.R400X300/122A-Edgedale-Plains-Hougang-Punggol-Sengkang-Singapore.jpg,122A Edgedale Plains,68.0050910915189,2016,94,390000,1.39350981217359,103.909106562659,19,Meridian,0.389101450331511,Punggol   Plaza    Singapore ,0.452222647055683,13.0214958313021,4.60481226242458,0.333411735793226
23450831,3 ROOM,https://www.propertyguru.com.sg/listing/hdb-for-sale-878b-tampines-avenue-8-23450831,https://sg2-cdn.pgimgs.com/listing/23450831/UPHO.128168377.R400X300/878B-Tampines-Avenue-8-Pasir-Ris-Tampines-Singapore.jpg,878B Tampines Avenue 8,68.0050910915189,2017,95,428000,1.35092636694988,103.929191231421,18,Tampines West,1.16865351118062,Our   Tampines   Hub    Singapore ,1.27566858288664,11.9025274971072,1.80458049978359,0.588610818958375
23375565,3 ROOM,https://www.propertyguru.com.sg/listing/hdb-for-sale-93a-telok-blangah-street-31-23375565,https://sg2-cdn.pgimgs.com/listing/23375565/UPHO.127178165.R400X300/93A-Telok-Blangah-Street-31-Harbourfront-Telok-Blangah-Singapore.jpg,93A Telok Blangah Street 31,67.9121879616124,2016,94,570000,1.27532678702066,103.807325814897,4,Telok Blangah,0.58081583544987,Alexandra   Retail   Centre    Singapore ,0.681811489647983,4.31964124030184,0.186418148375127,0.280593615557069
23402257,3 ROOM,https://www.propertyguru.com.sg/listing/hdb-for-sale-661a-edgedale-plains-23402257,https://sg1-cdn.pgimgs.com/listing/23402257/UPHO.127543614.R400X300/661A-Edgedale-Plains-Hougang-Punggol-Sengkang-Singapore.jpg,661A Edgedale Plains,66.983156662548,2014,92,450000,1.40303056639257,103.917080721325,19,Kadaloor,0.382614519574088,Oasis   Terraces    Singapore ,0.425822170856377,14.4021098521498,5.97948202444752,0.412967119989534
23463963,3 ROOM,https://www.propertyguru.com.sg/listing/hdb-for-sale-547c-segar-road-23463963,https://sg2-cdn.pgimgs.com/listing/23463963/UPHO.128341941.R400X300/547C-Segar-Road-Dairy-Farm-Bukit-Panjang-Choa-Chu-Kang-Singapore.jpg,547C Segar Road,66.983156662548,2013,91,399000,1.38853827277488,103.768773256544,23,Segar,0.12979506282255,Greenridge   Shopping   Centre    Singapore ,0.448724820825106,11.6928370268221,5.5010542048037,0.095128260424259
23425597,3 ROOM,https://www.propertyguru.com.sg/listing/hdb-for-sale-886a-woodlands-drive-50-23425597,https://sg2-cdn.pgimgs.com/listing/23425597/UPHO.127839975.R400X300/886A-Woodlands-Drive-50-Admiralty-Woodlands-Singapore.jpg,886A Woodlands Drive 50,66.983156662548,1937,15,399000,1.43829151566127,103.794612853493,25,Woodlands,0.92378719355581,888 Plaza Singapore,0.152059707601572,15.4198449072796,2.04376688163361,0.152059707601572
23364500,3 ROOM,https://www.propertyguru.com.sg/listing/hdb-for-sale-56-eng-hoon-street-23364500,https://sg1-cdn.pgimgs.com/listing/23364500/UPHO.127058158.R400X300/56-Eng-Hoon-Street-Alexandra-Commonwealth-Singapore.jpg,56 Eng Hoon Street,124.025678425106,2014,92,1550000,1.28424137023495,103.833923067555,3,Outram Park,0.754294423381113,Tiong   Bahru   Plaza    Singapore ,0.745547409491991,2.30213390032989,0.174081945061734,0.030430464345011
22061241,3 ROOM,https://www.propertyguru.com.sg/listing/hdb-for-sale-520a-tampines-central-8-22061241,https://sg2-cdn.pgimgs.com/listing/22061241/UPHO.111577203.R400X300/520A-Tampines-Central-8-Pasir-Ris-Tampines-Singapore.jpg,520A Tampines Central 8,62.0592907775063,1977,55,510000,1.35701024664546,103.939911246503,18,Tampines,0.473269210537027,Tampines 1    Singapore ,0.401770837219649,13.2696677272896,1.35205842700684,0.635372485415253
23390443,3 ROOM,https://www.propertyguru.com.sg/listing/hdb-for-sale-10-teck-whye-avenue-23390443,https://sg2-cdn.pgimgs.com/listing/23390443/UPHO.127387103.R400X300/10-Teck-Whye-Avenue-Dairy-Farm-Bukit-Panjang-Choa-Chu-Kang-Singapore.jpg,10 Teck Whye Avenue,66.983156662548,2013,91,318888,1.38047055057828,103.755211075265,23,Phoenix,0.363533526071822,Teck   Whye   Shopping   Centre    Singapore ,0.30890486297,12.020096728892,4.53973133938634,0.237716261854655
23453138,3 ROOM,https://www.propertyguru.com.sg/listing/hdb-for-sale-448a-sengkang-west-way-23453138,https://sg1-cdn.pgimgs.com/listing/23453138/UPHO.128198946.R400X300/448A-Sengkang-West-Way-Seletar-Yio-Chu-Kang-Singapore.jpg,448A Sengkang West Way,66.983156662548,2013,91,398000,1.39293649855269,103.87299848136,28,Fernvale,0.375791186424395,The   Seletar   Mall    Singapore ,0.387123984795275,10.7738883330906,3.02988461886064,0.10519172212961
23464209,3 ROOM,https://www.propertyguru.com.sg/listing/hdb-for-sale-348c-yishun-avenue-11-23464209,https://sg1-cdn.pgimgs.com/listing/23464209/UPHO.128344568.R400X300/348C-Yishun-Avenue-11-Sembawang-Yishun-Singapore.jpg,348C Yishun Avenue 11,66.983156662548,2016,94,460000,1.42714143019714,103.84223128885,27,Yishun,0.846825363352253,Northpoint   City    Singapore ,0.678226327630106,13.6356570253695,1.62681608183384,0.32628138279922
23406547,3 ROOM,https://www.propertyguru.com.sg/listing/hdb-for-sale-10a-bendemeer-road-23406547,https://sg1-cdn.pgimgs.com/listing/23406547/UPHO.127599334.R400X300/10A-Bendemeer-Road-Balestier-Toa-Payoh-Singapore.jpg,10A Bendemeer Road,67.9121879616124,2016,94,698000,1.31499138887312,103.86050538635,12,Bendemeer,0.323300963632677,City   Square   Mall    Singapore ,0.60164215612964,3.30675792475377,0.54682688716214,0.434249751793091
23452049,3 ROOM,https://www.propertyguru.com.sg/listing/hdb-for-sale-662b-edgedale-plains-23452049,https://sg1-cdn.pgimgs.com/listing/23452049/UPHO.128183396.R400X300/662B-Edgedale-Plains-Hougang-Punggol-Sengkang-Singapore.jpg,662B Edgedale Plains,66.983156662548,2014,92,449000,1.40172153675655,103.918690999509,19,Kadaloor,0.333645166163167,Oasis   Terraces    Singapore ,0.611035170323007,14.4105017038033,5.96822696180905,0.386091968713449
23392943,3 ROOM,https://www.propertyguru.com.sg/listing/hdb-for-sale-32-ghim-moh-link-23392943,https://sg1-cdn.pgimgs.com/listing/23392943/UPHO.127420938.R400X300/32-Ghim-Moh-Link-Tanglin-Holland-Bukit-Timah-Singapore.jpg,32 Ghim Moh Link,67.9121879616124,2017,95,630000,1.3100634072092,103.784498087029,10,Dover,0.673079397326129,The   Star   Vista    Singapore ,0.569836156144103,5.36978800015288,0.426648636240759,0.276573438545814
23409580,3 ROOM,https://www.propertyguru.com.sg/listing/hdb-for-sale-879a-tampines-avenue-8-23409580,https://sg2-cdn.pgimgs.com/listing/23409580/UPHO.127640897.R400X300/879A-Tampines-Avenue-8-Pasir-Ris-Tampines-Singapore.jpg,879A Tampines Avenue 8,67.9121879616124,2016,94,450000,1.35188475480754,103.929100689045,18,Tampines West,1.23454551266368,Our   Tampines   Hub    Singapore ,1.27851140187876,11.9396867530435,1.85047189986681,0.648606233870438
23392976,3 ROOM,https://www.propertyguru.com.sg/listing/hdb-for-sale-12-kampong-arang-road-23392976,https://sg2-cdn.pgimgs.com/listing/23392976/UPHO.127421361.R400X300/12-Kampong-Arang-Road-Kampong-Arang-Road-Singapore.jpg,Kampong Arang Road,103.029571066249,1982,60,560000,1.30082885462595,103.883694825656,15,Mountbatten,0.589631162666319,Leisure   Park   Kallang    Singapore ,0.803800724391636,5.70631425035875,0.172548834762968,0.785152140452094
23133076,3 ROOM,https://www.propertyguru.com.sg/listing/hdb-for-sale-311a-clementi-avenue-4-23133076,https://sg1-cdn.pgimgs.com/listing/23133076/UPHO.123939320.R400X300/311A-Clementi-Avenue-4-Buona-Vista-West-Coast-Clementi-New-Town-Singapore.jpg,311A Clementi Avenue 4,59.922518789658,2015,93,528888,1.31911656776897,103.765492195959,5,Clementi,0.46638467684707,The   Clementi   Mall    Singapore ,0.415350152174923,7.61765974930259,0.68201466084168,0.42836196417893
23460218,3 ROOM,https://www.propertyguru.com.sg/listing/hdb-for-sale-539-bukit-batok-street-52-23460218,https://sg1-cdn.pgimgs.com/listing/23460218/UPHO.128293684.R400X300/539-Bukit-Batok-Street-52-Dairy-Farm-Bukit-Panjang-Choa-Chu-Kang-Singapore.jpg,539 Bukit Batok Street 52,72.9289569765605,1985,63,338000,1.35476518284145,103.750885053123,23,Bukit Gombak,0.487936928597019,West   Mall    Singapore ,0.551305009318361,10.6354324340587,1.91414085338117,0.42075613752142
23439613,3 ROOM,https://www.propertyguru.com.sg/listing/hdb-for-sale-18a-circuit-road-23439613,https://sg2-cdn.pgimgs.com/listing/23439613/UPHO.128145671.R400X300/18A-Circuit-Road-Macpherson-Potong-Pasir-Singapore.jpg,18A Circuit Road,66.983156662548,2015,93,515000,1.32932082372457,103.888071748726,13,MacPherson,0.349091763400973,Grantral   Mall    Singapore ,0.493081911978317,6.74569138215275,0.194755308168033,0.025043663527818
23412774,3 ROOM,https://www.propertyguru.com.sg/listing/hdb-for-sale-128-yishun-street-11-23412774,https://sg1-cdn.pgimgs.com/listing/23412774/UPHO.127681140.R400X300/128-Yishun-Street-11-Sembawang-Yishun-Singapore.jpg,128 Yishun Street 11,73.9508914055315,1984,62,333000,1.43387793728634,103.831302218611,27,Yishun,0.626380772906622,Northpoint   City    Singapore ,0.857404827270679,14.3426118009228,0.409830232767613,0.459396014011015
21740379,3 ROOM,https://www.propertyguru.com.sg/listing/hdb-for-sale-26a-jalan-membina-21740379,https://sg1-cdn.pgimgs.com/listing/21740379/UPHO.106610858.R400X300/26A-Jalan-Membina-Alexandra-Commonwealth-Singapore.jpg,26A Jalan Membina,59.922518789658,2007,85,520000,1.28306228472369,103.826059892794,3,Tiong Bahru,0.400945227670371,Tiong   Bahru   Plaza    Singapore ,0.399548448702318,2.53213236401886,0.340013377267872,0.070183392839462
23354497,3 ROOM,https://www.propertyguru.com.sg/listing/hdb-for-sale-116a-jalan-tenteram-23354497,https://sg1-cdn.pgimgs.com/listing/23354497/UPHO.126925878.R400X300/116A-Jalan-Tenteram-Balestier-Toa-Payoh-Singapore.jpg,116A Jalan Tenteram,66.983156662548,2016,94,548888,1.3270531250321,103.860558381575,12,Boon Keng,0.783693548492083,The   Poiz    Singapore ,0.970100924475522,3.97250186385261,0.756282173863831,0.405970407183972
23323878,3 ROOM,https://www.propertyguru.com.sg/listing/hdb-for-sale-311a-clementi-avenue-4-23323878,https://sg2-cdn.pgimgs.com/listing/23323878/UPHO.126580919.R400X300/311A-Clementi-Avenue-4-Buona-Vista-West-Coast-Clementi-New-Town-Singapore.jpg,311A Clementi Avenue 4,60.0154219195645,2015,93,580000,1.31911656776897,103.765492195959,5,Clementi,0.46638467684707,The   Clementi   Mall    Singapore ,0.415350152174923,7.61765974930259,0.68201466084168,0.42836196417893
23221626,3 ROOM,https://www.propertyguru.com.sg/listing/hdb-for-sale-26-ghim-moh-link-23221626,https://sg1-cdn.pgimgs.com/listing/23221626/UPHO.125222594.R400X300/26-Ghim-Moh-Link-Tanglin-Holland-Bukit-Timah-Singapore.jpg,26 Ghim Moh Link,66.983156662548,2011,89,500000,1.30838826045914,103.785551268112,10,Buona Vista,0.513153411394687,The   Star   Vista    Singapore ,0.367905319046482,5.2363064157711,0.409963571853688,0.062958515306449
23410712,3 ROOM,https://www.propertyguru.com.sg/listing/hdb-for-sale-10-jalan-kukoh-23410712,https://sg1-cdn.pgimgs.com/listing/23410712/UPHO.127655224.R400X300/10-Jalan-Kukoh-Alexandra-Commonwealth-Singapore.jpg,10 Jalan Kukoh,75.9947602634733,1970,48,395000,1.28697383443979,103.839075823483,3,Chinatown,0.572318261800564,People's   Park   Complex    Singapore ,0.502251375993633,2.12191845500276,0.169255610873618,0.278656441026124
23457971,3 ROOM,https://www.propertyguru.com.sg/listing/hdb-for-sale-808b-chai-chee-road-23457971,https://sg2-cdn.pgimgs.com/listing/23457971/UPHO.128345215.R400X300/808B-Chai-Chee-Road-Bedok-Upper-East-Coast-Singapore.jpg,808B Chai Chee Road,66.983156662548,2015,93,500000,1.32747242201868,103.923868263972,16,Bedok,0.801018856660363,Djitsun   Mall   Bedok    Singapore ,0.656918321062493,10.4598983168854,0.49942194207273,0.306682055494641
22270855,3 ROOM,https://www.propertyguru.com.sg/listing/hdb-for-sale-235-tampines-street-21-22270855,https://sg1-cdn.pgimgs.com/listing/22270855/UPHO.114005596.R400X300/235-Tampines-Street-21-Pasir-Ris-Tampines-Singapore.jpg,235 Tampines Street 21,73.9508914055315,1993,71,388000,1.3554908091986,103.948259265817,18,Tampines,0.560201989339185,Tampines   Mall    Singapore ,0.532370182488382,14.041802860546,1.15367373232959,0.2648887272617
23470188,3 ROOM,https://www.propertyguru.com.sg/listing/hdb-for-sale-296b-bukit-batok-street-22-23470188,https://sg2-cdn.pgimgs.com/listing/23470188/UPHO.128427979.R400X300/296B-Bukit-Batok-Street-22-Dairy-Farm-Bukit-Panjang-Choa-Chu-Kang-Singapore.jpg,296B Bukit Batok Street 22,67.9121879616124,2017,95,480000,1.34369381417078,103.747356802144,23,Bukit Batok,0.647455844350144,West   Mall    Singapore ,0.741343454504758,10.4042616744219,1.05689224125145,0.577566006383958
23419667,3 ROOM,https://www.propertyguru.com.sg/listing/hdb-for-sale-611-clementi-west-street-1-23419667,https://sg1-cdn.pgimgs.com/listing/23419667/UPHO.127770392.R400X300/611-Clementi-West-Street-1-Buona-Vista-West-Coast-Clementi-New-Town-Singapore.jpg,611 Clementi West Street 1,74.0437945354379,1983,61,348000,1.30369739940549,103.769476900942,5,Dover,1.32812080957734,West   Coast   Plaza    Singapore ,0.466228235360774,7.01010473657224,0.579519716029129,0.215615605095126
23382081,3 ROOM,https://www.propertyguru.com.sg/listing/hdb-for-sale-807a-chai-chee-road-23382081,https://sg1-cdn.pgimgs.com/listing/23382081/UPHO.127271450.R400X300/807A-Chai-Chee-Road-Bedok-Upper-East-Coast-Singapore.jpg,807A Chai Chee Road,66.983156662548,2015,93,460000,1.32707387863851,103.923188202853,16,Bedok,0.849717555209346,Djitsun   Mall   Bedok    Singapore ,0.722253549814699,10.3759035638149,0.565794565757882,0.28886221834345
23459082,3 ROOM,https://www.propertyguru.com.sg/listing/hdb-for-sale-64-marine-drive-23459082,https://sg1-cdn.pgimgs.com/listing/23459082/UPHO.128279090.R400X300/64-Marine-Drive-East-Coast-Marine-Parade-Singapore.jpg,64 Marine Drive,68.0050910915189,1975,53,408000,1.3021128018146,103.909481434662,15,Eunos,2.09980965942106,Parkway   Parade    Singapore ,0.475074148265811,8.56055319869818,0.349903061826449,0.270272776253304
23079616,3 ROOM,https://www.propertyguru.com.sg/listing/hdb-for-sale-57-havelock-road-23079616,https://sg1-cdn.pgimgs.com/listing/23079616/UPHO.123205440.R400X300/57-Havelock-Road-Alexandra-Commonwealth-Singapore.jpg,57 Havelock Road,69.0270255204898,2011,89,550000,1.29013858517146,103.828453293371,3,Tiong Bahru,0.4318441971223,Tiong   Bahru   Plaza    Singapore ,0.435025923674288,1.70242071486797,0.185842196910093,0.188119167704975
23469428,3 ROOM,https://www.propertyguru.com.sg/listing/hdb-for-sale-780a-woodlands-crescent-23469428,https://sg2-cdn.pgimgs.com/listing/23469428/UPHO.128417339.R400X300/780A-Woodlands-Crescent-Admiralty-Woodlands-Singapore.jpg,780A Woodlands Crescent,66.983156662548,2013,91,365000,1.44867890682994,103.80077081866,25,Woodlands,2.05932578331774,Woodlands   Mart    Singapore ,0.444602566566156,16.3728051679559,2.7010459290208,0.049192264301624
23415738,3 ROOM,https://www.propertyguru.com.sg/listing/hdb-for-sale-499b-tampines-avenue-9-23415738,https://sg1-cdn.pgimgs.com/listing/23415738/UPHO.127718132.R400X300/499B-Tampines-Avenue-9-Pasir-Ris-Tampines-Singapore.jpg,499B Tampines Avenue 9,66.983156662548,2012,90,395000,1.35887020526725,103.956331658876,18,Tampines East,0.300329017666168,Loyang   Point    Singapore ,1.24722271072444,15.0145521626008,1.95465984992291,0.391274261287472
23469745,3 ROOM,https://www.propertyguru.com.sg/listing/hdb-for-sale-142-potong-pasir-avenue-3-23469745,https://sg2-cdn.pgimgs.com/listing/23469745/UPHO.128421363.R400X300/142-Potong-Pasir-Avenue-3-Macpherson-Potong-Pasir-Singapore.jpg,142 Potong Pasir Avenue 3,65.0321909345126,1984,62,428000,1.333204066999,103.866992603867,13,Potong Pasir,0.288984933453898,The   Poiz    Singapore ,0.242503274854208,4.95863855208655,1.12954013981432,0.065829480865082
23007876,3 ROOM,https://www.propertyguru.com.sg/listing/hdb-for-sale-808c-chai-chee-road-23007876,https://sg1-cdn.pgimgs.com/listing/23007876/UPHO.122221366.R400X300/808C-Chai-Chee-Road-Bedok-Upper-East-Coast-Singapore.jpg,808C Chai Chee Road,68.0050910915189,2015,93,530000,1.32789302968467,103.923874941007,16,Bedok,0.82367652605938,Djitsun   Mall   Bedok    Singapore ,0.668987558713038,10.4719395912417,0.454348058794705,0.352656954930819
23446355,3 ROOM,https://www.propertyguru.com.sg/listing/hdb-for-sale-118-pending-road-23446355,https://sg1-cdn.pgimgs.com/listing/23446355/UPHO.128108300.R400X300/118-Pending-Road-Dairy-Farm-Bukit-Panjang-Choa-Chu-Kang-Singapore.jpg,118 Pending Road,73.021860106467,1986,64,369999,1.37680420349221,103.768463736662,23,Petir,0.241281316891674,Hillion   Mall    Singapore ,0.545282622920628,10.7072008753987,4.22180921907267,0.456215012979969
23469451,3 ROOM,https://www.propertyguru.com.sg/listing/hdb-for-sale-475d-upper-serangoon-crescent-23469451,https://sg1-cdn.pgimgs.com/listing/23469451/UPHO.128417156.R400X300/475D-Upper-Serangoon-Crescent-Hougang-Punggol-Sengkang-Singapore.jpg,475D Upper Serangoon Crescent,66.983156662548,2014,92,500000,1.37518254401409,103.900405982824,19,Hougang,0.970718026689706,The   Midtown    Singapore ,0.785916473471371,10.8637374094047,2.3961449881394,0.444784122520537
22762013,3 ROOM,https://www.propertyguru.com.sg/listing/hdb-for-sale-15-farrer-park-road-22762013,https://sg2-cdn.pgimgs.com/listing/22762013/UPHO.119256109.R400X300/15-Farrer-Park-Road-Farrer-Park-Serangoon-Rd-Singapore.jpg,15 Farrer Park Road,61.9663876475999,2002,80,450000,1.31104346812008,103.851660614786,8,Farrer Park,0.400650455674876,Serangoon   Plaza    Singapore ,0.388644638888887,2.23429422407059,0.553508326312199,0.45707759523285
23468657,3 ROOM,https://www.propertyguru.com.sg/listing/hdb-for-sale-418a-fernvale-link-23468657,https://sg1-cdn.pgimgs.com/listing/23468657/UPHO.128406516.R400X300/418A-Fernvale-Link-Seletar-Yio-Chu-Kang-Singapore.jpg,418A Fernvale Link,66.983156662548,2017,95,400000,1.39100745746343,103.879606736157,28,Layar,0.134231440096158,The   Seletar   Mall    Singapore ,0.385795707572643,10.91205230463,3.31211186891052,0.385077417391998
22368985,3 ROOM,https://www.propertyguru.com.sg/listing/hdb-for-sale-311b-clementi-avenue-4-22368985,https://sg1-cdn.pgimgs.com/listing/22368985/UPHO.115054818.R400X300/311B-Clementi-Avenue-4-Buona-Vista-West-Coast-Clementi-New-Town-Singapore.jpg,311B Clementi Avenue 4,60.0154219195645,2015,93,529888,1.31944669077179,103.765649446368,5,Clementi,0.503957600281677,The   Clementi   Mall    Singapore ,0.455304919723982,7.60828064311265,0.721117461213004,0.427500773441841
23444107,3 ROOM,https://www.propertyguru.com.sg/listing/hdb-for-sale-520c-tampines-central-8-23444107,https://sg1-cdn.pgimgs.com/listing/23444107/UPHO.128077230.R400X300/520C-Tampines-Central-8-Pasir-Ris-Tampines-Singapore.jpg,520C Tampines Central 8,61.9663876475999,2014,92,518000,1.35674170789189,103.939692399456,18,Tampines,0.476490021254118,Tampines 1    Singapore ,0.409038819456956,13.234752834891,1.3342828894577,0.603980161742388
23430391,3 ROOM,https://www.propertyguru.com.sg/listing/hdb-for-sale-535-ang-mo-kio-avenue-5-23430391,https://sg2-cdn.pgimgs.com/listing/23430391/UPHO.127900749.R400X300/535-Ang-Mo-Kio-Avenue-5-Ang-Mo-Kio-Bishan-Thomson-Singapore.jpg,535 Ang Mo Kio Avenue 5,81.9405605774859,1979,57,420000,1.37458255258876,103.853049125302,20,Ang Mo Kio,0.636282725887797,Jubilee   Square    Singapore ,0.663483759011796,8.07752725023336,0.238868641176782,0.234810059468119
23418775,3 ROOM,https://www.propertyguru.com.sg/listing/hdb-for-sale-7-boon-keng-road-23418775,https://sg2-cdn.pgimgs.com/listing/23418775/UPHO.127780553.R400X300/7-Boon-Keng-Road-Balestier-Toa-Payoh-Singapore.jpg,7 Boon Keng Road,69.9560568195543,2011,89,638000,1.31678922529742,103.861781918434,12,Boon Keng,0.367412101732005,Aperia    Singapore ,0.824914810638306,3.51088018804161,0.303101383769537,0.599632178194661
23343600,3 ROOM,https://www.propertyguru.com.sg/listing/hdb-for-sale-1-changi-village-road-23343600,https://sg2-cdn.pgimgs.com/listing/23343600/UPHO.126799031.R400X300/1-Changi-Village-Road-Changi-Airport-Changi-Village-Singapore.jpg,1 Changi Village Road,65.9612222335771,1975,53,330000,1.3885465622902,103.987804503483,17,Changi Airport,3.43949604077821,Changi   Airport    Singapore ,2.9434026011977,19.6080470671477,0.137048986802251,3.32581858172767
23417852,3 ROOM,https://www.propertyguru.com.sg/listing/hdb-for-sale-174b-hougang-avenue-1-23417852,https://sg1-cdn.pgimgs.com/listing/23417852/UPHO.127746668.R400X300/174B-Hougang-Avenue-1-Hougang-Punggol-Sengkang-Singapore.jpg,174B Hougang Avenue,65.9612222335771,1982,60,378888,1.34955516910382,103.889276891994,19,Kovan,1.2696518307812,Heartland   Mall    Singapore ,1.20096574317115,8.02865916904272,0.485833174137331,0.48692123910921
23466364,3 ROOM,https://www.propertyguru.com.sg/listing/hdb-for-sale-212-marsiling-crescent-23466364,https://sg2-cdn.pgimgs.com/listing/23466364/UPHO.128372477.R400X300/212-Marsiling-Crescent-Admiralty-Woodlands-Singapore.jpg,212 Marsiling Crescent,73.9508914055315,1983,61,280000,1.44621408696805,103.773079709744,25,Marsiling,1.52081538079913,Marsiling   Mall    Singapore ,1.59499170929463,17.0466220474548,0.524899164351473,1.52659843609762
23390919,3 ROOM,https://www.propertyguru.com.sg/listing/hdb-for-sale-108-jalan-bukit-merah-23390919,https://sg1-cdn.pgimgs.com/listing/23390919/UPHO.127394092.R400X300/108-Jalan-Bukit-Merah-Alexandra-Commonwealth-Singapore.jpg,108 Jalan Bukit Merah,74,2015,93,370000,1.27922008833833,103.825441382185,3,Tiong Bahru,0.832804728995139,Tiong   Bahru   Plaza    Singapore ,0.824820626263786,2.96182771020335,0.107965002888479,0.380039882984554
22943266,3 ROOM,https://www.propertyguru.com.sg/listing/hdb-for-sale-311b-clementi-avenue-4-22943266,https://sg2-cdn.pgimgs.com/listing/22943266/UPHO.121222913.R400X300/311B-Clementi-Avenue-4-Buona-Vista-West-Coast-Clementi-New-Town-Singapore.jpg,311B Clementi Avenue 4,59.922518789658,2016,94,530000,1.31944669077179,103.765649446368,5,Clementi,0.503957600281677,The   Clementi   Mall    Singapore ,0.455304919723982,7.60828064311265,0.721117461213004,0.427500773441841
23422878,3 ROOM,https://www.propertyguru.com.sg/listing/hdb-for-sale-208a-clementi-avenue-6-23422878,https://sg1-cdn.pgimgs.com/listing/23422878/UPHO.128029000.R400X300/208A-Clementi-Avenue-6-Buona-Vista-West-Coast-Clementi-New-Town-Singapore.jpg,208A Clementi Avenue 6,64.9392878046061,2016,94,610000,1.32200240528557,103.762448319374,5,Clementi,0.850135924026493,The   Clementi   Mall    Singapore ,0.760882277944728,8.01896715647463,1.02066625430175,0.552611474090332
23468590,3 ROOM,https://www.propertyguru.com.sg/listing/hdb-for-sale-116a-jalan-tenteram-23468590,https://sg2-cdn.pgimgs.com/listing/23468590/UPHO.128405829.R400X300/116A-Jalan-Tenteram-Balestier-Toa-Payoh-Singapore.jpg,116A Jalan Tenteram,66.983156662548,2015,93,519999,1.3270531250321,103.860558381575,12,Boon Keng,0.783693548492083,The   Poiz    Singapore ,0.970100924475522,3.97250186385261,0.756282173863831,0.405970407183972
23468503,3 ROOM,https://www.propertyguru.com.sg/listing/hdb-for-sale-311a-clementi-avenue-4-23468503,https://sg2-cdn.pgimgs.com/listing/23468503/UPHO.128404759.R400X300/311A-Clementi-Avenue-4-Buona-Vista-West-Coast-Clementi-New-Town-Singapore.jpg,311A Clementi Avenue 4,60.0154219195645,2014,92,560000,1.31911656776897,103.765492195959,5,Clementi,0.46638467684707,The   Clementi   Mall    Singapore ,0.415350152174923,7.61765974930259,0.68201466084168,0.42836196417893
23468388,3 ROOM,https://www.propertyguru.com.sg/listing/hdb-for-sale-623a-punggol-central-23468388,https://sg2-cdn.pgimgs.com/listing/23468388/UPHO.128402727.R400X300/623A-Punggol-Central-Hougang-Punggol-Sengkang-Singapore.jpg,623A Punggol Central,68.9341223905833,2012,90,370000,1.39988482536912,103.91189638413,19,Oasis,0.284731916987082,Oasis   Terraces    Singapore ,0.341797940426615,13.7625384541919,5.36812948237829,0.167341356967038
23468240,3 ROOM,https://www.propertyguru.com.sg/listing/hdb-for-sale-635-veerasamy-road-23468240,https://sg2-cdn.pgimgs.com/listing/23468240/UPHO.128400301.R400X300/635-Veerasamy-Road-Farrer-Park-Serangoon-Rd-Singapore.jpg,635 Veerasamy Road,71.9999256774961,1984,62,480000,1.30658850181779,103.855218716278,8,Jalan Besar,0.118028592679458,Mustafa   Shopping   Centre    Singapore ,0.382648024198826,2.52975826047576,0.203783628785982,0.254681133467793
23442804,3 ROOM,https://www.propertyguru.com.sg/listing/hdb-for-sale-345-bukit-batok-street-34-23442804,https://sg2-cdn.pgimgs.com/listing/23442804/UPHO.128399717.R400X300/345-Bukit-Batok-Street-34-Dairy-Farm-Bukit-Panjang-Choa-Chu-Kang-Singapore.jpg,345 Bukit Batok Street 34,72.9289569765605,1985,63,348000,1.36284881503816,103.750843242288,23,Bukit Gombak,0.438107872275216,West   Mall    Singapore ,1.4294441372674,11.1343108634556,2.58980007402906,0.168432603708605
23457137,3 ROOM,https://www.propertyguru.com.sg/listing/hdb-for-sale-101-tampines-street-11-23457137,https://sg1-cdn.pgimgs.com/listing/23457137/UPHO.128252310.R400X300/101-Tampines-Street-11-Pasir-Ris-Tampines-Singapore.jpg,101 Tampines Street 11,74.9728258345024,1981,59,368000,1.34740034584156,103.945294915705,18,Tampines West,0.809441424489289,Century   Square    Singapore ,0.569669470805651,13.3973654364275,0.195903320362829,0.231589543336422
23437227,3 ROOM,https://www.propertyguru.com.sg/listing/hdb-for-sale-236-tampines-street-21-23437227,https://sg2-cdn.pgimgs.com/listing/23437227/UPHO.127985983.R400X300/236-Tampines-Street-21-Pasir-Ris-Tampines-Singapore.jpg,236 Tampines Street 21,73.021860106467,1984,62,370000,1.35590516879668,103.947447486706,18,Tampines,0.485372833822001,Tampines   Mall    Singapore ,0.494868437304505,13.9777984565565,1.16920073403609,0.170668848847136
23441971,3 ROOM,https://www.propertyguru.com.sg/listing/hdb-for-sale-80c-telok-blangah-street-31-23441971,https://sg2-cdn.pgimgs.com/listing/23441971/UPHO.128051311.R400X300/80C-Telok-Blangah-Street-31-Harbourfront-Telok-Blangah-Singapore.jpg,80C Telok Blangah Street 31,68.0050910915189,2011,89,608000,1.27349435644809,103.807229362471,4,Telok Blangah,0.422532391425065,Alexandra   Retail   Centre    Singapore ,0.651966699885411,4.4834112560764,0.045918548203262,0.189996832375646
23213804,3 ROOM,https://www.propertyguru.com.sg/listing/hdb-for-sale-641-rowell-road-23213804,https://sg1-cdn.pgimgs.com/listing/23213804/UPHO.125462052.R400X300/641-Rowell-Road-Farrer-Park-Serangoon-Rd-Singapore.jpg,641 Rowell Road,73.9508914055315,1982,60,445000,1.30815916680635,103.855147802763,8,Jalan Besar,0.291866014364729,Mustafa   Shopping   Centre    Singapore ,0.211121871672158,2.54089244371329,0.213709070469042,0.079938519038222
23465240,3 ROOM,https://www.propertyguru.com.sg/listing/hdb-for-sale-115-teck-whye-lane-23465240,https://sg1-cdn.pgimgs.com/listing/23465240/UPHO.128357552.R400X300/115-Teck-Whye-Lane-Dairy-Farm-Bukit-Panjang-Choa-Chu-Kang-Singapore.jpg,115 Teck Whye Lane,73.021860106467,1987,65,330000,1.37893677955462,103.751182368998,23,Keat Hong,0.239032518928206,Teck   Whye   Shopping   Centre    Singapore ,0.188617978257702,12.2288284973578,4.20816971794853,0.22327658948804
22523862,3 ROOM,https://www.propertyguru.com.sg/listing/hdb-for-sale-523b-tampines-central-7-22523862,https://sg1-cdn.pgimgs.com/listing/22523862/UPHO.116741800.R400X300/523B-Tampines-Central-7-Pasir-Ris-Tampines-Singapore.jpg,523B Tampines Central 7,66.983156662548,2014,92,449000,1.35986668073237,103.938372890966,18,Tampines,0.814584064650333,Tampines 1    Singapore ,0.735343288635264,13.2594168801722,1.71139179799402,0.663047556853087
23467325,3 ROOM,https://www.propertyguru.com.sg/listing/hdb-for-sale-802a-keat-hong-close-23467325,https://sg2-cdn.pgimgs.com/listing/23467325/UPHO.128385619.R400X300/802A-Keat-Hong-Close-Dairy-Farm-Bukit-Panjang-Choa-Chu-Kang-Singapore.jpg,802A Keat Hong Close,66.983156662548,2016,94,358000,1.37451584184375,103.74347432386,23,South View,0.673856793488088,Keat   Hong   Shopping   Centre    Singapore ,0.340448502031897,12.5667127427819,3.50322433000527,0.340447546360052
22096890,3 ROOM,https://www.propertyguru.com.sg/listing/hdb-for-sale-53-stirling-road-22096890,https://sg2-cdn.pgimgs.com/listing/22096890/UPHO.111987743.R400X300/53-Stirling-Road-Alexandra-Commonwealth-Singapore.jpg,53 Stirling Road,78.0386291214151,1959,37,810000,1.29664619926236,103.803619402049,3,Queenstown,0.321758275483957,Anchorpoint    Singapore ,0.906345087005913,3.34177122761246,0.387423246395498,0.640098931986264
23121925,3 ROOM,https://www.propertyguru.com.sg/listing/hdb-for-sale-73-eng-watt-street-23121925,https://sg2-cdn.pgimgs.com/listing/23121925/UPHO.123786611.R400X300/73-Eng-Watt-Street-Alexandra-Commonwealth-Singapore.jpg,73 Eng Watt Street,111.483755887736,1937,15,1388000,1.28337036699164,103.832456524921,3,Tiong Bahru,0.706613430038187,Tiong   Bahru   Plaza    Singapore ,0.637061024908149,2.39374593735911,0.146342539332444,0.219779513102009
23411316,3 ROOM,https://www.propertyguru.com.sg/listing/hdb-for-sale-212-tampines-street-23-23411316,https://sg2-cdn.pgimgs.com/listing/23411316/UPHO.127662977.R400X300/212-Tampines-Street-23-Pasir-Ris-Tampines-Singapore.jpg,212 Tampines Street 23,72.9289569765605,1984,62,399000,1.35443416250723,103.954404790753,18,Tampines East,0.239906637177385,Tampines   Mall    Singapore ,1.13060953258535,14.6256483613029,1.45443419435081,0.189481357641535
23419700,3 ROOM,https://www.propertyguru.com.sg/listing/hdb-for-sale-108-tampines-street-11-23419700,https://sg2-cdn.pgimgs.com/listing/23419700/UPHO.127770771.R400X300/108-Tampines-Street-11-Pasir-Ris-Tampines-Singapore.jpg,108 Tampines Street 11,72.9289569765605,1983,61,375000,1.34786646438204,103.94856161626,18,Simei,0.739935918614961,Tampines   Mall    Singapore ,0.707690669474886,13.7556766355315,0.498541271449516,0.053467630103481
23439192,3 ROOM,https://www.propertyguru.com.sg/listing/hdb-for-sale-15-farrer-park-road-23439192,https://sg1-cdn.pgimgs.com/listing/23439192/UPHO.128015042.R400X300/15-Farrer-Park-Road-Farrer-Park-Serangoon-Rd-Singapore.jpg,15 Farrer Park Road,61.9663876475999,2002,80,500000,1.31104346812008,103.851660614786,8,Farrer Park,0.400650455674876,Serangoon   Plaza    Singapore ,0.388644638888887,2.23429422407059,0.553508326312199,0.45707759523285
23395504,3 ROOM,https://www.propertyguru.com.sg/listing/hdb-for-sale-105-potong-pasir-avenue-1-23395504,https://sg1-cdn.pgimgs.com/listing/23395504/UPHO.127757200.R400X300/105-Potong-Pasir-Avenue-1-Macpherson-Potong-Pasir-Singapore.jpg,105 Potong Pasir Avenue 1,73.9508914055315,1984,62,380000,1.33442373227682,103.868696835165,13,Potong Pasir,0.345685230361759,The   Poiz    Singapore ,0.346542777926043,5.19113878934201,1.29937266927276,0.262899445286266
23455525,3 ROOM,https://www.propertyguru.com.sg/listing/hdb-for-sale-235-tampines-street-21-23455525,https://sg1-cdn.pgimgs.com/listing/23455525/UPHO.128228786.R400X300/235-Tampines-Street-21-Pasir-Ris-Tampines-Singapore.jpg,235 Tampines Street 21,73.857988275625,1993,71,378000,1.3554908091986,103.948259265817,18,Tampines,0.560201989339185,Tampines   Mall    Singapore ,0.532370182488382,14.041802860546,1.15367373232959,0.2648887272617
23425865,3 ROOM,https://www.propertyguru.com.sg/listing/hdb-for-sale-665-hougang-avenue-4-23425865,https://sg1-cdn.pgimgs.com/listing/23425865/UPHO.127843866.R400X300/665-Hougang-Avenue-4-Hougang-Punggol-Sengkang-Singapore.jpg,665 Hougang Avenue 4,74.0437945354379,1986,64,385000,1.37403985056586,103.884391131798,19,Hougang,0.951281174893252,Hougang 1    Singapore ,0.580851517815342,9.61001558661006,1.67189492058577,0.159186469121119
23307049,3 ROOM,https://www.propertyguru.com.sg/listing/hdb-for-sale-138b-lorong-1a-toa-payoh-23307049,https://sg2-cdn.pgimgs.com/listing/23307049/UPHO.126478831.R400X300/138B-Lorong-1A-Toa-Payoh-Balestier-Toa-Payoh-Singapore.jpg,138B Lorong 1A Toa Payoh,69.9560568195543,2012,90,650000,1.33626408939966,103.845626191384,12,Toa Payoh,0.473933756911898,HDB   Hub   Singapore ,0.492054774960165,3.77964727782371,0.226350813297645,0.42334908984651
21999506,3 ROOM,https://www.propertyguru.com.sg/listing/hdb-for-sale-78-guan-chuan-street-21999506,https://sg2-cdn.pgimgs.com/listing/21999506/UPHO.110825879.R400X300/78-Guan-Chuan-Street-Alexandra-Commonwealth-Singapore.jpg,78 Guan Chuan Street,92.996033036353,1937,15,988888,1.28332611385654,103.831014548462,3,Tiong Bahru,0.576600245018576,Tiong   Bahru   Plaza    Singapore ,0.509869180844966,2.40452531721203,0.217558182363272,0.252074216821856
23171969,3 ROOM,https://www.propertyguru.com.sg/listing/hdb-for-sale-50-dorset-road-23171969,https://sg2-cdn.pgimgs.com/listing/23171969/UPHO.124494279.R400X300/50-Dorset-Road-Farrer-Park-Serangoon-Rd-Singapore.jpg,50 Dorset Road,67.9121879616124,1978,56,370000,1.31272456684823,103.850376065967,8,Farrer Park,0.499820225087506,KKH  Mall    Singapore ,0.444051281819425,2.16687872108199,0.382370061888334,0.305830172742473
23433168,3 ROOM,https://www.propertyguru.com.sg/listing/hdb-for-sale-227-tampines-street-23-23433168,https://sg2-cdn.pgimgs.com/listing/23433168/UPHO.127934503.R400X300/227-Tampines-Street-23-Pasir-Ris-Tampines-Singapore.jpg,227 Tampines Street 23,70.9779912485252,1984,62,378000,1.35470798068717,103.955002715196,18,Tampines East,0.185587014700206,Tampines   Mall    Singapore ,1.2014894829809,14.698689156798,1.52457769793566,0.261571881310766
22486530,3 ROOM,https://www.propertyguru.com.sg/listing/hdb-for-sale-50-commonwealth-drive-22486530,https://sg2-cdn.pgimgs.com/listing/22486530/UPHO.116342753.R400X300/50-Commonwealth-Drive-Alexandra-Commonwealth-Singapore.jpg,50 Commonwealth Drive,68.0050910915189,2013,91,525000,1.30112909158394,103.797123032464,3,Commonwealth,0.197734870717999,IMM Singapore,0.391779631597129,3.95776596548829,0.091797276587451,0.142706732361481
23387964,3 ROOM,https://www.propertyguru.com.sg/listing/hdb-for-sale-807c-chai-chee-road-23387964,https://sg2-cdn.pgimgs.com/listing/23387964/UPHO.127351065.R400X300/807C-Chai-Chee-Road-Bedok-Upper-East-Coast-Singapore.jpg,807C Chai Chee Road,68.0050910915189,2015,93,475000,1.3279979407231,103.92324860169,16,Bedok,0.889610114175568,Djitsun   Mall   Bedok    Singapore ,0.738916765124542,10.4073063655538,0.469017390495312,0.38097862437414
23466464,3 ROOM,https://www.propertyguru.com.sg/listing/hdb-for-sale-256c-sumang-walk-23466464,https://sg2-cdn.pgimgs.com/listing/23466464/UPHO.128373861.R400X300/256C-Sumang-Walk-Hougang-Punggol-Sengkang-Singapore.jpg,256C Sumang Walk,67.9121879616124,2015,93,420000,1.40540203681825,103.895910481206,19,Soo Teck,0.153062669410273,Waterway   Point    Singapore ,0.687277041072587,13.2114442763429,5.26395905526798,0.101545173116564
23466435,3 ROOM,https://www.propertyguru.com.sg/listing/hdb-for-sale-311a-clementi-avenue-4-23466435,https://sg1-cdn.pgimgs.com/listing/23466435/UPHO.128373496.R400X300/311A-Clementi-Avenue-4-Buona-Vista-West-Coast-Clementi-New-Town-Singapore.jpg,311A Clementi Avenue 4,59.922518789658,2015,93,568888,1.31911656776897,103.765492195959,5,Clementi,0.46638467684707,The   Clementi   Mall    Singapore ,0.415350152174923,7.61765974930259,0.68201466084168,0.42836196417893
23326673,3 ROOM,https://www.propertyguru.com.sg/listing/hdb-for-sale-107-towner-road-23326673,https://sg1-cdn.pgimgs.com/listing/23326673/UPHO.126599954.R400X300/107-Towner-Road-Balestier-Toa-Payoh-Singapore.jpg,107 Towner Road,73.9508914055315,1982,60,478000,1.31979508625985,103.860435814245,12,Boon Keng,0.13946851518378,City   Square   Mall    Singapore ,1.04477784115301,3.5172305057537,0.294536990170178,0.234177482901912
23451982,3 ROOM,https://www.propertyguru.com.sg/listing/hdb-for-sale-665c-punggol-drive-23451982,https://sg1-cdn.pgimgs.com/listing/23451982/UPHO.128182606.R400X300/665C-Punggol-Drive-Hougang-Punggol-Sengkang-Singapore.jpg,665C Punggol Drive,66.983156662548,2015,93,430000,1.4014916460804,103.914459128885,19,Oasis,0.211776710985341,Oasis   Terraces    Singapore ,0.183323600985651,14.0826838123425,5.67334182203186,0.287100642756453
20747467,3 ROOM,https://www.propertyguru.com.sg/listing/hdb-for-sale-138b-lorong-1a-toa-payoh-20747467,https://sg2-cdn.pgimgs.com/listing/20747467/UPHO.90814657.R400X300/138B-Lorong-1A-Toa-Payoh-Balestier-Toa-Payoh-Singapore.jpg,138B Lorong 1A Toa Payoh,69.9560568195543,2012,90,650000,1.33626408939966,103.845626191384,12,Toa Payoh,0.473933756911898,HDB   Hub   Singapore ,0.492054774960165,3.77964727782371,0.226350813297645,0.42334908984651
23346773,3 ROOM,https://www.propertyguru.com.sg/listing/hdb-for-sale-698b-jurong-west-central-3-23346773,https://sg2-cdn.pgimgs.com/listing/23346773/UPHO.126837215.R400X300/698B-Jurong-West-Central-3-Boon-Lay-Jurong-Tuas-Singapore.jpg,698B Jurong West Central 3,67.9121879616124,2016,94,425000,1.3406512946922,103.707506154373,22,Boon Lay,0.293728515714464,Jurong   Point    Singapore ,0.204776917789885,14.4552443323876,0.835921819873608,0.161605280548322
23465810,3 ROOM,https://www.propertyguru.com.sg/listing/hdb-for-sale-675c-yishun-avenue-4-23465810,https://sg2-cdn.pgimgs.com/listing/23465810/UPHO.128364709.R400X300/675C-Yishun-Avenue-4-Sembawang-Yishun-Singapore.jpg,675C Yishun Avenue 4,67.9121879616124,99,-1823,365000,1.41942653983796,103.842181861126,27,Khatib,1.04523892741937,Wisteria   Mall    Singapore ,0.190344379958101,12.780206793308,2.05808444108166,0.750036306794305
23409212,3 ROOM,https://www.propertyguru.com.sg/listing/hdb-for-sale-139a-lorong-1a-toa-payoh-23409212,https://sg1-cdn.pgimgs.com/listing/23409212/UPHO.127635956.R400X300/139A-Lorong-1A-Toa-Payoh-Balestier-Toa-Payoh-Singapore.jpg,139A Lorong 1A Toa Payoh,70.0489599494607,2012,90,659000,1.33627775831234,103.844044881122,12,Caldecott,0.514237899903071,HDB   Hub   Singapore ,0.578778676550196,3.71688177483291,0.215779302007383,0.519252401089323
23393110,3 ROOM,https://www.propertyguru.com.sg/listing/hdb-for-sale-537-bukit-batok-street-52-23393110,https://sg2-cdn.pgimgs.com/listing/23393110/UPHO.127423205.R400X300/537-Bukit-Batok-Street-52-Dairy-Farm-Bukit-Panjang-Choa-Chu-Kang-Singapore.jpg,537 Bukit Batok Street 52,72.9289569765605,1985,63,338000,1.35511516448647,103.750877888291,23,Bukit Gombak,0.450275447839899,West   Mall    Singapore ,0.587840378616043,10.6564518420351,1.93920003612892,0.38416110391537
23005653,3 ROOM,https://www.propertyguru.com.sg/listing/hdb-for-sale-475d-upper-serangoon-crescent-23005653,https://sg2-cdn.pgimgs.com/listing/23005653/UPHO.122402611.R400X300/475D-Upper-Serangoon-Crescent-475D-Upper-Serangoon-Crescent-Singapore.jpg,475D Upper Serangoon Crescent,67.3547691821738,2014,92,460000,1.37518254401409,103.900405982824,19,Hougang,0.970718026689706,The   Midtown    Singapore ,0.785916473471371,10.8637374094047,2.3961449881394,0.444784122520537
23454178,3 ROOM,https://www.propertyguru.com.sg/listing/hdb-for-sale-90a-telok-blangah-street-31-23454178,https://sg1-cdn.pgimgs.com/listing/23454178/UPHO.128211272.R400X300/90A-Telok-Blangah-Street-31-Harbourfront-Telok-Blangah-Singapore.jpg,90A Telok Blangah Street 31,67.9121879616124,2017,95,680000,1.27773820035208,103.807097180814,4,Labrador Park,0.797948692955736,Alexandra   Retail   Centre    Singapore ,0.769599455849873,4.13653121235134,0.455194097889389,0.505483061009613
23465763,3 ROOM,https://www.propertyguru.com.sg/listing/hdb-for-sale-802a-keat-hong-close-23465763,https://sg1-cdn.pgimgs.com/listing/23465763/UPHO.128365416.R400X300/802A-Keat-Hong-Close-Dairy-Farm-Bukit-Panjang-Choa-Chu-Kang-Singapore.jpg,802A Keat Hong Close,66.8902535326415,2016,94,400000,1.37451584184375,103.74347432386,23,South View,0.673856793488088,Keat   Hong   Shopping   Centre    Singapore ,0.340448502031897,12.5667127427819,3.50322433000527,0.340447546360052
23348729,3 ROOM,https://www.propertyguru.com.sg/listing/hdb-for-sale-308c-punggol-walk-23348729,https://sg2-cdn.pgimgs.com/listing/23348729/UPHO.126860695.R400X300/308C-Punggol-Walk-Hougang-Punggol-Sengkang-Singapore.jpg,308C Punggol Walk,66.983156662548,2015,93,450000,1.40800694944027,103.899074357998,19,Sumang,0.075763747619422,Waterway   Point    Singapore ,0.362855670987637,13.644790130293,5.62758286916178,4.66926203134203E-06
23418631,3 ROOM,https://www.propertyguru.com.sg/listing/hdb-for-sale-32-eunos-crescent-23418631,https://sg2-cdn.pgimgs.com/listing/23418631/UPHO.127757307.R400X300/32-Eunos-Crescent-Eunos-Geylang-Paya-Lebar-Singapore.jpg,32 Eunos Crescent,59.922518789658,2005,83,468000,1.32029253511762,103.901355995305,14,Eunos,0.178591864749327,KINEX Singapore,0.985893019003655,7.84079539309749,0.330783513495204,0.234629350406099
23465015,3 ROOM,https://www.propertyguru.com.sg/listing/hdb-for-sale-308b-ang-mo-kio-avenue-1-23465015,https://sg1-cdn.pgimgs.com/listing/23465015/UPHO.128354410.R400X300/308B-Ang-Mo-Kio-Avenue-1-Ang-Mo-Kio-Bishan-Thomson-Singapore.jpg,308B Ang Mo Kio Avenue 1,69.9560568195543,2011,89,519000,1.3652661423815,103.844538059044,20,Ang Mo Kio,0.771457506574561,AMKHub    Singapore ,0.622264562607464,6.84421857543598,0.422945563293709,0.334971950352423
23427570,3 ROOM,https://www.propertyguru.com.sg/listing/hdb-for-sale-886a-woodlands-drive-50-23427570,https://sg2-cdn.pgimgs.com/listing/23427570/UPHO.128114837.R400X300/886A-Woodlands-Drive-50-Admiralty-Woodlands-Singapore.jpg,886A Woodlands Drive 50,66.983156662548,2013,91,399000,1.43829151566127,103.794612853493,25,Woodlands,0.92378719355581,888 Plaza Singapore,0.152059707601572,15.4198449072796,2.04376688163361,0.152059707601572
23464593,3 ROOM,https://www.propertyguru.com.sg/listing/hdb-for-sale-113c-mcnair-road-23464593,https://sg1-cdn.pgimgs.com/listing/23464593/UPHO.128349286.R400X300/113C-Mcnair-Road-Balestier-Toa-Payoh-Singapore.jpg,113C Mcnair Road,68.0050910915189,2016,94,698000,1.32088235344697,103.860331710143,12,Boon Keng,0.171413857157962,City   Square   Mall    Singapore ,1.15228704495607,3.56572344105471,0.351704176140355,0.133565868860502
23439673,3 ROOM,https://www.propertyguru.com.sg/listing/hdb-for-sale-261-tampines-street-21-23439673,https://sg2-cdn.pgimgs.com/listing/23439673/UPHO.128021359.R400X300/261-Tampines-Street-21-Pasir-Ris-Tampines-Singapore.jpg,261 Tampines Street 21,73.9508914055315,1983,61,380000,1.3543034927433,103.950965475574,18,Tampines East,0.548299607135735,Tampines   Mall    Singapore ,0.753339610509676,14.2665926304277,1.18298145934646,0.248326669857172
23464708,3 ROOM,https://www.propertyguru.com.sg/listing/hdb-for-sale-110-teck-whye-lane-23464708,https://sg1-cdn.pgimgs.com/listing/23464708/UPHO.128350898.R400X300/110-Teck-Whye-Lane-Dairy-Farm-Bukit-Panjang-Choa-Chu-Kang-Singapore.jpg,110 Teck Whye Lane,72.9289569765605,1987,65,308000,1.37823695284901,103.752208325828,23,Teck Whye,0.232382635603836,Teck   Whye   Shopping   Centre    Singapore ,0.203354425223088,12.0921233630867,4.17765591806858,0.207214828122261
23039187,3 ROOM,https://www.propertyguru.com.sg/listing/hdb-for-sale-5-ghim-moh-road-23039187,https://sg2-cdn.pgimgs.com/listing/23039187/UPHO.124304305.R400X300/5-Ghim-Moh-Road-Tanglin-Holland-Bukit-Timah-Singapore.jpg,5 Ghim Moh Road,65.0321909345126,1975,53,345000,1.31269310627626,103.788308828224,10,Buona Vista,0.62609903308965,The   Star   Vista    Singapore ,0.653839507867766,4.99119499285045,0.198393837916823,0.291499345802169
23464574,3 ROOM,https://www.propertyguru.com.sg/listing/hdb-for-sale-205-tampines-street-21-23464574,https://sg1-cdn.pgimgs.com/listing/23464574/UPHO.128349008.R400X300/205-Tampines-Street-21-Pasir-Ris-Tampines-Singapore.jpg,205 Tampines Street 21,74.9728258345024,1982,60,380000,1.35171755145102,103.951966044566,18,Tampines East,0.642323045406546,Tampines   Mall    Singapore ,0.849070131948668,14.2618553739522,1.05239011514846,0.224305516783775
23377787,3 ROOM,https://www.propertyguru.com.sg/listing/hdb-for-sale-414-eunos-road-5-23377787,https://sg1-cdn.pgimgs.com/listing/23377787/UPHO.127209498.R400X300/414-Eunos-Road-5-Eunos-Geylang-Paya-Lebar-Singapore.jpg,414 Eunos Road 5,73.9508914055315,1984,62,460000,1.31811559287301,103.898220673165,14,Eunos,0.55195814864623,KINEX Singapore,0.563722604525824,7.44953835660824,0.16029545665466,0.16029545665466
23440779,3 ROOM,https://www.propertyguru.com.sg/listing/hdb-for-sale-162-bukit-batok-street-11-23440779,https://sg1-cdn.pgimgs.com/listing/23440779/UPHO.128035708.R400X300/162-Bukit-Batok-Street-11-Dairy-Farm-Bukit-Panjang-Choa-Chu-Kang-Singapore.jpg,162 Bukit Batok Street 11,73.9508914055315,1984,62,350000,1.34768075020651,103.741887681534,23,Bukit Batok,0.870683108106914,West   Mall    Singapore ,0.857592459441022,11.1423522418113,0.64482424622755,0.117418009806723
23324961,3 ROOM,https://www.propertyguru.com.sg/listing/hdb-for-sale-293-tampines-street-22-23324961,https://sg1-cdn.pgimgs.com/listing/23324961/UPHO.126580368.R400X300/293-Tampines-Street-22-Pasir-Ris-Tampines-Singapore.jpg,293 Tampines Street 22,72.5573444569348,1983,61,359999,1.35039108059224,103.954901592901,18,Tampines East,0.661191515650849,Eastpoint   Mall    Singapore ,0.891343979512093,14.5140936751393,1.25556187534001,0.397710499071216
23375147,3 ROOM,https://www.propertyguru.com.sg/listing/hdb-for-sale-416-bukit-batok-west-avenue-4-23375147,https://sg2-cdn.pgimgs.com/listing/23375147/UPHO.127172347.R400X300/416-Bukit-Batok-West-Avenue-4-Dairy-Farm-Bukit-Panjang-Choa-Chu-Kang-Singapore.jpg,416 Bukit Batok West Avenue 4,73.021860106467,1985,63,330001,1.36323334513612,103.745988532649,23,Bukit Gombak,0.802215955210118,West   Mall    Singapore ,1.50404176370371,11.6024840628204,2.37173153147564,0.398812714969649
23377109,3 ROOM,https://www.propertyguru.com.sg/listing/hdb-for-sale-43-bendemeer-road-23377109,https://sg1-cdn.pgimgs.com/listing/23377109/UPHO.127199630.R400X300/43-Bendemeer-Road-Balestier-Toa-Payoh-Singapore.jpg,43 Bendemeer Road,62.9883220765708,1981,59,310000,1.32112499272338,103.865833285976,12,Boon Keng,0.478499984173411,The   Poiz    Singapore ,1.16637329068469,4.11898924492669,0.377769478390514,0.506762272817066
23455132,3 ROOM,https://www.propertyguru.com.sg/listing/hdb-for-sale-18c-circuit-road-23455132,https://sg1-cdn.pgimgs.com/listing/23455132/UPHO.128223210.R400X300/18C-Circuit-Road-Macpherson-Potong-Pasir-Singapore.jpg,18C Circuit Road,66.983156662548,2015,93,599888,1.3292969092972,103.888792588332,13,MacPherson,0.306911351870132,Grantral   Mall    Singapore ,0.511662231769394,6.81806107403508,0.240858578398796,0.061851330077889
23438512,3 ROOM,https://www.propertyguru.com.sg/listing/hdb-for-sale-416-bukit-batok-west-avenue-4-23438512,https://sg1-cdn.pgimgs.com/listing/23438512/UPHO.128004444.R400X300/416-Bukit-Batok-West-Avenue-4-Dairy-Farm-Bukit-Panjang-Choa-Chu-Kang-Singapore.jpg,416 Bukit Batok West Avenue 4,72.9289569765605,1985,63,330000,1.36323334513612,103.745988532649,23,Bukit Gombak,0.802215955210118,West   Mall    Singapore ,1.50404176370371,11.6024840628204,2.37173153147564,0.398812714969649
23421316,3 ROOM,https://www.propertyguru.com.sg/listing/hdb-for-sale-308b-ang-mo-kio-avenue-1-23421316,https://sg2-cdn.pgimgs.com/listing/23421316/UPHO.127790229.R400X300/308B-Ang-Mo-Kio-Avenue-1-Ang-Mo-Kio-Bishan-Thomson-Singapore.jpg,308B Ang Mo Kio Avenue 1,69.9560568195543,2011,89,519000,1.3652661423815,103.844538059044,20,Ang Mo Kio,0.771457506574561,AMKHub    Singapore ,0.622264562607464,6.84421857543598,0.422945563293709,0.334971950352423
23398557,3 ROOM,https://www.propertyguru.com.sg/listing/hdb-for-sale-547c-segar-road-23398557,https://sg1-cdn.pgimgs.com/listing/23398557/UPHO.127497674.R400X300/547C-Segar-Road-Dairy-Farm-Bukit-Panjang-Choa-Chu-Kang-Singapore.jpg,547C Segar Road,66.983156662548,2014,92,390000,1.38853827277488,103.768773256544,23,Segar,0.12979506282255,Greenridge   Shopping   Centre    Singapore ,0.448724820825106,11.6928370268221,5.5010542048037,0.095128260424259
23401708,3 ROOM,https://www.propertyguru.com.sg/listing/hdb-for-sale-520c-tampines-central-8-23401708,https://sg2-cdn.pgimgs.com/listing/23401708/UPHO.127536681.R400X300/520C-Tampines-Central-8-Pasir-Ris-Tampines-Singapore.jpg,520C Tampines Central 8,61.9663876475999,2014,92,518000,1.35674170789189,103.939692399456,18,Tampines,0.476490021254118,Tampines 1    Singapore ,0.409038819456956,13.234752834891,1.3342828894577,0.603980161742388
23463058,3 ROOM,https://www.propertyguru.com.sg/listing/hdb-for-sale-635-veerasamy-road-23463058,https://sg1-cdn.pgimgs.com/listing/23463058/UPHO.128330112.R400X300/635-Veerasamy-Road-Farrer-Park-Serangoon-Rd-Singapore.jpg,635 Veerasamy Road,71.9999256774961,1984,62,480000,1.30658850181779,103.855218716278,8,Jalan Besar,0.118028592679458,Mustafa   Shopping   Centre    Singapore ,0.382648024198826,2.52975826047576,0.203783628785982,0.254681133467793
23462047,3 ROOM,https://www.propertyguru.com.sg/listing/hdb-for-sale-2-marsiling-drive-23462047,https://sg1-cdn.pgimgs.com/listing/23462047/UPHO.128316794.R400X300/2-Marsiling-Drive-Admiralty-Woodlands-Singapore.jpg,2 Marsiling Drive,76.1805665232862,1973,51,290000,1.4399947,103.7765892,25,Marsiling,0.868023902721692,Marsiling   Mall    Singapore ,0.801710080177933,16.2581612646141,0.403292791182518,0.876773067870086
23462803,3 ROOM,https://www.propertyguru.com.sg/listing/hdb-for-sale-256c-sumang-walk-23462803,https://sg1-cdn.pgimgs.com/listing/23462803/UPHO.128326442.R400X300/256C-Sumang-Walk-Hougang-Punggol-Sengkang-Singapore.jpg,256C Sumang Walk,67.9121879616124,2015,93,420000,1.40540203681825,103.895910481206,19,Soo Teck,0.153062669410273,Waterway   Point    Singapore ,0.687277041072587,13.2114442763429,5.26395905526798,0.101545173116564
23462782,3 ROOM,https://www.propertyguru.com.sg/listing/hdb-for-sale-662b-edgedale-plains-23462782,https://sg1-cdn.pgimgs.com/listing/23462782/UPHO.128325970.R400X300/662B-Edgedale-Plains-Hougang-Punggol-Sengkang-Singapore.jpg,662B Edgedale Plains,66.983156662548,2016,94,449000,1.40172153675655,103.918690999509,19,Kadaloor,0.333645166163167,Oasis   Terraces    Singapore ,0.611035170323007,14.4105017038033,5.96822696180905,0.386091968713449
23462433,3 ROOM,https://www.propertyguru.com.sg/listing/hdb-for-sale-223-pending-road-23462433,https://sg2-cdn.pgimgs.com/listing/23462433/UPHO.128322935.R400X300/223-Pending-Road-Dairy-Farm-Bukit-Panjang-Choa-Chu-Kang-Singapore.jpg,223 Pending Road,73.021860106467,1986,64,345000,1.37573517510314,103.773609219643,23,Pending,0.264870443053164,Fajar   Shopping   Centre    Singapore ,0.930441192587027,10.243915727288,4.02641634581501,0.24189408717127
23436927,3 ROOM,https://www.propertyguru.com.sg/listing/hdb-for-sale-91-dawson-road-23436927,https://sg2-cdn.pgimgs.com/listing/23436927/UPHO.127982279.R400X300/91-Dawson-Road-Alexandra-Commonwealth-Singapore.jpg,91 Dawson Road,64.9392878046061,2015,93,650000,1.29534041095665,103.812585191493,3,Queenstown,0.744810756635312,Anchorpoint    Singapore ,1.12625673468218,2.4582348210362,1.05572055130155,0.31423121864059
23447706,3 ROOM,https://www.propertyguru.com.sg/listing/hdb-for-sale-663a-punggol-drive-23447706,https://sg2-cdn.pgimgs.com/listing/23447706/UPHO.128128037.R400X300/663A-Punggol-Drive-Hougang-Punggol-Sengkang-Singapore.jpg,663A Punggol Drive,66.983156662548,2015,93,430000,1.40024347718059,103.91708004,19,Kadaloor,0.090914150639466,Oasis   Terraces    Singapore ,0.500014811456625,14.1687003539824,5.72903234189004,0.143398402437824
23448987,3 ROOM,https://www.propertyguru.com.sg/listing/hdb-for-sale-87-dawson-road-23448987,https://sg2-cdn.pgimgs.com/listing/23448987/UPHO.128144711.R400X300/87-Dawson-Road-Alexandra-Commonwealth-Singapore.jpg,87 Dawson Road,64.9392878046061,2015,93,688000,1.29573042684509,103.809759937443,3,Queenstown,0.439489065654806,Anchorpoint    Singapore ,0.951248682449239,2.72830462406771,0.811055215620367,0.0456751606981
23439329,3 ROOM,https://www.propertyguru.com.sg/listing/hdb-for-sale-527b-pasir-ris-street-51-23439329,https://sg1-cdn.pgimgs.com/listing/23439329/UPHO.128016938.R400X300/527B-Pasir-Ris-Street-51-Pasir-Ris-Tampines-Singapore.jpg,527B Pasir Ris Street 51,68.0050910915189,2014,92,468000,1.36899453114431,103.947710069014,18,Pasir Ris,0.505149264098527,White   Sands    Singapore ,0.42976511857415,14.654463114636,2.60388145147925,0.080456429037461
23442205,3 ROOM,https://www.propertyguru.com.sg/listing/hdb-for-sale-109-bukit-purmei-road-23442205,https://sg1-cdn.pgimgs.com/listing/23442205/UPHO.128054776.R400X300/109-Bukit-Purmei-Road-Harbourfront-Telok-Blangah-Singapore.jpg,109 Bukit Purmei Road,73.9508914055315,1984,62,428000,1.27392939929263,103.825310761145,4,HarbourFront,1.08292228746913,Vivo   City    Singapore ,1.11929250016175,3.53568227867227,0.397262818575936,0.790679836190483
23442618,3 ROOM,https://www.propertyguru.com.sg/listing/hdb-for-sale-633-veerasamy-road-23442618,https://sg1-cdn.pgimgs.com/listing/23442618/UPHO.128059818.R400X300/633-Veerasamy-Road-Farrer-Park-Serangoon-Rd-Singapore.jpg,633 Veerasamy Road,71.9999256774961,1984,62,430000,1.30570669566479,103.854943243934,8,Jalan Besar,0.058191010382276,Sim   Lim   Square    Singapore ,0.365892920865291,2.49376251895,0.282714293749257,0.322038412025342
23404425,3 ROOM,https://www.propertyguru.com.sg/listing/hdb-for-sale-pasir-ris-one-23404425,https://sg2-cdn.pgimgs.com/listing/23404425/UPHO.127571757.R400X300/Pasir-Ris-One-Pasir-Ris-Tampines-Singapore.jpg,530 Pasir Ris Dr 1,65.0321909345126,2015,93,565000,1.37123835676013,103.949429759361,18,Pasir Ris,0.222115194378507,White   Sands    Singapore ,0.121472340873785,14.9433636174236,2.88087013580145,0.148302921997628
23461600,3 ROOM,https://www.propertyguru.com.sg/listing/hdb-for-sale-256d-sumang-walk-23461600,https://sg1-cdn.pgimgs.com/listing/23461600/UPHO.128311338.R400X300/256D-Sumang-Walk-Hougang-Punggol-Sengkang-Singapore.jpg,256D Sumang Walk,67.9121879616124,2015,93,408000,1.40494870154993,103.896007686194,19,Soo Teck,0.152183756540866,Waterway   Point    Singapore ,0.687837590997526,13.174616198425,5.21694233558685,0.104421322811918
23461444,3 ROOM,https://www.propertyguru.com.sg/listing/hdb-for-sale-235-tampines-street-21-23461444,https://sg1-cdn.pgimgs.com/listing/23461444/UPHO.128309652.R400X300/235-Tampines-Street-21-Pasir-Ris-Tampines-Singapore.jpg,235 Tampines Street 21,73.857988275625,1993,71,378000,1.3554908091986,103.948259265817,18,Tampines,0.560201989339185,Tampines   Mall    Singapore ,0.532370182488382,14.041802860546,1.15367373232959,0.2648887272617
23462104,3 ROOM,https://www.propertyguru.com.sg/listing/hdb-for-sale-662b-edgedale-plains-23462104,https://sg1-cdn.pgimgs.com/listing/23462104/UPHO.128331728.R400X300/662B-Edgedale-Plains-Hougang-Punggol-Sengkang-Singapore.jpg,662B Edgedale Plains,66.983156662548,2016,94,430000,1.40172153675655,103.918690999509,19,Kadaloor,0.333645166163167,Oasis   Terraces    Singapore ,0.611035170323007,14.4105017038033,5.96822696180905,0.386091968713449
22335100,3 ROOM,https://www.propertyguru.com.sg/listing/hdb-for-sale-107-towner-road-22335100,https://sg2-cdn.pgimgs.com/listing/22335100/UPHO.114679971.R400X300/107-Towner-Road-Balestier-Toa-Payoh-Singapore.jpg,107 Towner Road,73.9508914055315,1982,60,500000,1.31979508625985,103.860435814245,12,Boon Keng,0.13946851518378,City   Square   Mall    Singapore ,1.04477784115301,3.5172305057537,0.294536990170178,0.234177482901912
23431446,3 ROOM,https://www.propertyguru.com.sg/listing/hdb-for-sale-93a-telok-blangah-street-31-23431446,https://sg2-cdn.pgimgs.com/listing/23431446/UPHO.128013103.R400X300/93A-Telok-Blangah-Street-31-Harbourfront-Telok-Blangah-Singapore.jpg,93A Telok Blangah Street 31,67.9121879616124,2017,95,680000,1.27532678702066,103.807325814897,4,Telok Blangah,0.58081583544987,Alexandra   Retail   Centre    Singapore ,0.681811489647983,4.31964124030184,0.186418148375127,0.280593615557069
