,id,flat_type,listing_url,img_url,listing_name,floor_area_sqm,lease_commence_date,remaining_lease,resale_price,latitude,longitude,postal_district,mrt_nearest,mrt_distance,mall_nearest,mall_distance,orchard_distance,hawker_distance,market_distance
0,23446280,1 ROOM,https://www.propertyguru.com.sg/listing/hdb-for-sale-7-telok-blangah-crescent-23446280,https://sg2-cdn.pgimgs.com/listing/23446280/UPHO.128107293.R400X300/7-Telok-Blangah-Crescent-Harbourfront-Telok-Blangah-Singapore.jpg,7 Telok Blangah Crescent,31.02964538875315,1974,52,210000,1.27836137310783,103.819384010497,4,Tiong Bahru,1.2404200018177178,Tiong   Bahru   Plaza    Singapore ,1.268746611612761,3.292533980866366,0.13797743892647865,0.06311327605620205
1,22949287,1 ROOM,https://www.propertyguru.com.sg/listing/hdb-for-sale-64-tiong-poh-road-22949287,https://sg2-cdn.pgimgs.com/listing/22949287/UPHO.121288923.R400X300/64-Tiong-Poh-Road-Alexandra-Commonwealth-Singapore.jpg,64 Tiong Poh Road,116.96504055221621,1937,15,1500000,1.28371484671919,103.833690180573,3,Outram Park,0.7442132603150249,Tiong   Bahru   Plaza    Singapore ,0.7419415005028588,2.3589875191357392,0.17762040192335762,0.09216295920376434
2,23325558,1 ROOM,https://www.propertyguru.com.sg/listing/hdb-for-sale-7-telok-blangah-crescent-23325558,https://sg2-cdn.pgimgs.com/listing/23325558/UPHO.126587043.R400X300/7-Telok-Blangah-Crescent-Harbourfront-Telok-Blangah-Singapore.jpg,7 Telok Blangah Crescent,31.02964538875315,1974,52,230000,1.27836137310783,103.819384010497,4,Tiong Bahru,1.2404200018177178,Tiong   Bahru   Plaza    Singapore ,1.268746611612761,3.292533980866366,0.13797743892647865,0.06311327605620205
3,23459063,1 ROOM,https://www.propertyguru.com.sg/listing/hdb-for-sale-7-telok-blangah-crescent-23459063,https://sg1-cdn.pgimgs.com/listing/23459063/UPHO.128278874.R400X300/7-Telok-Blangah-Crescent-Harbourfront-Telok-Blangah-Singapore.jpg,7 Telok Blangah Crescent,31.02964538875315,1974,52,220000,1.27836137310783,103.819384010497,4,Tiong Bahru,1.2404200018177178,Tiong   Bahru   Plaza    Singapore ,1.268746611612761,3.292533980866366,0.13797743892647865,0.06311327605620205
4,23469736,2 ROOM,https://www.propertyguru.com.sg/listing/hdb-for-sale-26-ghim-moh-link-23469736,https://sg2-cdn.pgimgs.com/listing/23469736/UPHO.128421135.R400X300/26-Ghim-Moh-Link-Tanglin-Holland-Bukit-Timah-Singapore.jpg,26 Ghim Moh Link,47.00898373266195,2011,89,400000,1.30838826045914,103.785551268112,10,Buona Vista,0.5131534113946868,The   Star   Vista    Singapore ,0.36790531904648155,5.236306415771095,0.4099635718536885,0.0629585153064488
5,23469665,2 ROOM,https://www.propertyguru.com.sg/listing/hdb-for-sale-95a-henderson-road-23469665,https://sg2-cdn.pgimgs.com/listing/23469665/UPHO.128420239.R400X300/95A-Henderson-Road-Alexandra-Commonwealth-Singapore.jpg,95A Henderson Road,47.00898373266195,2018,96,498000,1.2865978995213,103.821365379859,3,Redhill,0.6132220965864638,Tiong   Bahru   Plaza    Singapore ,0.6882513905151459,2.383205641960058,0.14337028436749366,0.30137382075711755
6,23447591,2 ROOM,https://www.propertyguru.com.sg/listing/hdb-for-sale-180a-boon-lay-drive-23447591,https://sg1-cdn.pgimgs.com/listing/23447591/UPHO.128391266.R400X300/180A-Boon-Lay-Drive-Boon-Lay-Jurong-Tuas-Singapore.jpg,180A Boon Lay Drive,47.00898373266195,2012,90,245000,1.3476144467016,103.708643452604,22,Boon Lay,1.0483314862732513,Boon   Lay   Shopping   Centre    Singapore ,0.44748376187778216,14.567473368457398,0.55949148538448,0.44748376187778216
7,23459072,2 ROOM,https://www.propertyguru.com.sg/listing/hdb-for-sale-467b-fernvale-link-23459072,https://sg2-cdn.pgimgs.com/listing/23459072/UPHO.128279009.R400X300/467B-Fernvale-Link-Seletar-Yio-Chu-Kang-Singapore.jpg,467B Fernvale Link,46.91608060275551,2015,93,310000,1.39807105476612,103.877933381661,28,Thanggam,0.2695240165394773,The   Seletar   Mall    Singapore ,0.7562531692944864,11.52468072395601,3.8215612366289156,0.4196651442255398
8,23468869,2 ROOM,https://www.propertyguru.com.sg/listing/hdb-for-sale-52-lorong-6-toa-payoh-23468869,https://sg1-cdn.pgimgs.com/listing/23468869/UPHO.128409622.R400X300/52-Lorong-6-Toa-Payoh-Balestier-Toa-Payoh-Singapore.jpg,52 Lorong 6 Toa Payoh,42.921246016778305,1966,44,210000,1.33824914332832,103.852481978622,12,Braddell,0.6508981339426729,HDB   Hub   Singapore ,0.9014292640991379,4.321446850078046,0.2576406747261551,0.3373561825715449
9,23454724,2 ROOM,https://www.propertyguru.com.sg/listing/hdb-for-sale-52-lorong-6-toa-payoh-23454724,https://sg2-cdn.pgimgs.com/listing/23454724/UPHO.128218385.R400X300/52-Lorong-6-Toa-Payoh-Balestier-Toa-Payoh-Singapore.jpg,52 Lorong 6 Toa Payoh,42.921246016778305,1966,44,210000,1.33824914332832,103.852481978622,12,Braddell,0.6508981339426729,HDB   Hub   Singapore ,0.9014292640991379,4.321446850078046,0.2576406747261551,0.3373561825715449
10,23454721,2 ROOM,https://www.propertyguru.com.sg/listing/hdb-for-sale-52-lorong-6-toa-payoh-23454721,https://sg1-cdn.pgimgs.com/listing/23454721/UPHO.128218300.R400X300/52-Lorong-6-Toa-Payoh-Balestier-Toa-Payoh-Singapore.jpg,52 Lorong 6 Toa Payoh,42.921246016778305,1966,44,210000,1.33824914332832,103.852481978622,12,Braddell,0.6508981339426729,HDB   Hub   Singapore ,0.9014292640991379,4.321446850078046,0.2576406747261551,0.3373561825715449
11,23454715,2 ROOM,https://www.propertyguru.com.sg/listing/hdb-for-sale-52-lorong-6-toa-payoh-23454715,https://sg1-cdn.pgimgs.com/listing/23454715/UPHO.128218204.R400X300/52-Lorong-6-Toa-Payoh-Balestier-Toa-Payoh-Singapore.jpg,52 Lorong 6 Toa Payoh,42.921246016778305,1966,44,210000,1.33824914332832,103.852481978622,12,Braddell,0.6508981339426729,HDB   Hub   Singapore ,0.9014292640991379,4.321446850078046,0.2576406747261551,0.3373561825715449
12,23463699,2 ROOM,https://www.propertyguru.com.sg/listing/hdb-for-sale-508-jurong-west-street-52-23463699,https://sg2-cdn.pgimgs.com/listing/23463699/UPHO.128338699.R400X300/508-Jurong-West-Street-52-Boon-Lay-Jurong-Tuas-Singapore.jpg,508 Jurong West Street 52,91.04506730831763,1984,62,390000,1.34872718063363,103.718715391434,22,Lakeside,0.547579976935787,Boon   Lay   Shopping   Centre    Singapore ,0.7416550584552963,13.55792701470559,0.10602514451952647,0.32229536958042215
13,23468576,2 ROOM,https://www.propertyguru.com.sg/listing/hdb-for-sale-528a-pasir-ris-street-51-23468576,https://sg1-cdn.pgimgs.com/listing/23468576/UPHO.128405702.R400X300/528A-Pasir-Ris-Street-51-Pasir-Ris-Tampines-Singapore.jpg,528A Pasir Ris Street 51,47.00898373266195,2012,90,300000,1.37021066906466,103.947986536645,18,Pasir Ris,0.3684480207861673,White   Sands    Singapore ,0.30177203190614615,14.74744413204664,2.7420274777537132,0.058746505528887445
14,23375218,2 ROOM,https://www.propertyguru.com.sg/listing/hdb-for-sale-8-jalan-kukoh-23375218,https://sg2-cdn.pgimgs.com/listing/23375218/UPHO.127173273.R400X300/8-Jalan-Kukoh-Alexandra-Commonwealth-Singapore.jpg,8 Jalan Kukoh,53.04768717658098,1970,48,298000,1.2873776268224,103.839407060595,3,Chinatown,0.5636584904793257,People's   Park   Complex    Singapore ,0.5052827684041135,2.092979966971347,0.11152855336675478,0.24378491418124462
15,22733425,2 ROOM,https://www.propertyguru.com.sg/listing/hdb-for-sale-547c-segar-road-22733425,https://sg2-cdn.pgimgs.com/listing/22733425/UPHO.119000255.R400X300/547C-Segar-Road-Dairy-Farm-Bukit-Panjang-Choa-Chu-Kang-Singapore.jpg,547C Segar Road,47.00898373266195,2014,92,280000,1.38853827277488,103.768773256544,23,Segar,0.1297950628225504,Greenridge   Shopping   Centre    Singapore ,0.4487248208251055,11.692837026822124,5.5010542048037,0.09512826042425873
16,23467772,2 ROOM,https://www.propertyguru.com.sg/listing/hdb-for-sale-26-ghim-moh-link-23467772,https://sg2-cdn.pgimgs.com/listing/23467772/UPHO.128393155.R400X300/26-Ghim-Moh-Link-Tanglin-Holland-Bukit-Timah-Singapore.jpg,26 Ghim Moh Link,46.91608060275551,2011,89,400000,1.30838826045914,103.785551268112,10,Buona Vista,0.5131534113946868,The   Star   Vista    Singapore ,0.36790531904648155,5.236306415771095,0.4099635718536885,0.0629585153064488
17,23457977,2 ROOM,https://www.propertyguru.com.sg/listing/hdb-for-sale-445b-fernvale-road-23457977,https://sg1-cdn.pgimgs.com/listing/23457977/UPHO.128264398.R400X300/445B-Fernvale-Road-Seletar-Yio-Chu-Kang-Singapore.jpg,445B Fernvale Road,47.00898373266195,2011,89,300000,1.39224716162446,103.874095130429,28,Fernvale,0.2413846820506736,The   Seletar   Mall    Singapore ,0.24524901129232618,10.756098037056542,3.0598858730936707,0.1787736216674721
18,22221354,2 ROOM,https://www.propertyguru.com.sg/listing/hdb-for-sale-79-chay-yan-street-22221354,https://sg1-cdn.pgimgs.com/listing/22221354/UPHO.113482128.R400X300/79-Chay-Yan-Street-Alexandra-Commonwealth-Singapore.jpg,79 Chay Yan Street,97.54828640176888,1937,15,1388888,1.28254464335985,103.830801232256,3,Tiong Bahru,0.6177218560773553,Tiong   Bahru   Plaza    Singapore ,0.5548884570386876,2.4929269544025208,0.2985675500273117,0.3020407208196526
19,23405235,2 ROOM,https://www.propertyguru.com.sg/listing/hdb-for-sale-26-ghim-moh-link-23405235,https://sg1-cdn.pgimgs.com/listing/23405235/UPHO.127582738.R400X300/26-Ghim-Moh-Link-Tanglin-Holland-Bukit-Timah-Singapore.jpg,26 Ghim Moh Link,46.91608060275551,2011,89,358000,1.30838826045914,103.785551268112,10,Buona Vista,0.5131534113946868,The   Star   Vista    Singapore ,0.36790531904648155,5.236306415771095,0.4099635718536885,0.0629585153064488
20,23456857,2 ROOM,https://www.propertyguru.com.sg/listing/hdb-for-sale-423-clementi-avenue-1-23456857,https://sg2-cdn.pgimgs.com/listing/23456857/UPHO.128248273.R400X300/423-Clementi-Avenue-1-Buona-Vista-West-Coast-Clementi-New-Town-Singapore.jpg,423 Clementi Avenue 1,48.95994946069733,2011,89,358000,1.30945612208303,103.769918822857,5,Clementi,0.792955014989706,321 Clementi Singapore,0.6208113427223,6.9781326278084315,0.5586103642724913,0.1407409142401102
21,23455549,2 ROOM,https://www.propertyguru.com.sg/listing/hdb-for-sale-188-boon-lay-drive-23455549,https://sg2-cdn.pgimgs.com/listing/23455549/UPHO.128229179.R400X300/188-Boon-Lay-Drive-Boon-Lay-Jurong-Tuas-Singapore.jpg,188 Boon Lay Drive,46.91608060275551,1975,53,250000,1.34381009067473,103.710990466041,22,Boon Lay,0.8147430436858099,Boon   Lay   Shopping   Centre    Singapore ,0.3292674666295898,14.186397372071527,0.3136730291583652,0.3292674666295898
22,23249777,2 ROOM,https://www.propertyguru.com.sg/listing/hdb-for-sale-780f-woodlands-crescent-23249777,https://sg2-cdn.pgimgs.com/listing/23249777/UPHO.125614217.R400X300/780F-Woodlands-Crescent-Admiralty-Woodlands-Singapore.jpg,780F Woodlands Crescent,46.91608060275551,2014,92,310000,1.44777726469884,103.801148446244,25,Woodlands,2.0312409664067888,Woodlands   Mart    Singapore ,0.407734441437258,16.265866171308065,2.7232161749597514,0.0635620402585068
23,23452275,2 ROOM,https://www.propertyguru.com.sg/listing/hdb-for-sale-424a-yishun-avenue-11-23452275,https://sg2-cdn.pgimgs.com/listing/23452275/UPHO.128266249.R400X300/424A-Yishun-Avenue-11-Sembawang-Yishun-Singapore.jpg,424A Yishun Avenue 11,47.00898373266195,2014,92,275000,1.42322643296322,103.848049317931,27,Yishun,1.6132927214048538,Wisteria   Mall    Singapore ,0.9546553610472572,13.270261864140748,2.3864756693877367,0.20615765228725016
24,23456521,2 ROOM,https://www.propertyguru.com.sg/listing/hdb-for-sale-371-jurong-east-street-32-23456521,https://sg2-cdn.pgimgs.com/listing/23456521/UPHO.128243229.R400X300/371-Jurong-East-Street-32-Boon-Lay-Jurong-Tuas-Singapore.jpg,371 Jurong East Street 32,43.01414914668475,2013,91,288000,1.3483083591294,103.731919903016,22,Chinese Garden,0.6571124282103263,JCube    Singapore ,1.9107716137653696,12.181047739354137,0.33525971975092045,0.3205406263711991
25,23339928,2 ROOM,https://www.propertyguru.com.sg/listing/hdb-for-sale-26-ghim-moh-link-23339928,https://sg1-cdn.pgimgs.com/listing/23339928/UPHO.126757126.R400X300/26-Ghim-Moh-Link-Tanglin-Holland-Bukit-Timah-Singapore.jpg,26 Ghim Moh Link,47.00898373266195,2011,89,460000,1.30838826045914,103.785551268112,10,Buona Vista,0.5131534113946868,The   Star   Vista    Singapore ,0.36790531904648155,5.236306415771095,0.4099635718536885,0.0629585153064488
26,22514539,2 ROOM,https://www.propertyguru.com.sg/listing/hdb-for-sale-48-lower-delta-road-22514539,https://sg1-cdn.pgimgs.com/listing/22514539/UPHO.125138508.R400X300/48-Lower-Delta-Road-Alexandra-Commonwealth-Singapore.jpg,48 Lower Delta Road,45.987049303691045,1964,42,240000,1.28944268125333,103.826201445621,3,Tiong Bahru,0.33187154184876283,Tiong   Bahru   Plaza    Singapore ,0.3770414125469784,1.8567444168344462,0.1492191710186752,0.0758490355171099
27,23437309,2 ROOM,https://www.propertyguru.com.sg/listing/hdb-for-sale-256c-sumang-walk-23437309,https://sg2-cdn.pgimgs.com/listing/23437309/UPHO.127987113.R400X300/256C-Sumang-Walk-Hougang-Punggol-Sengkang-Singapore.jpg,256C Sumang Walk,46.91608060275551,2015,93,310000,1.40540203681825,103.895910481206,19,Soo Teck,0.15306266941027322,Waterway   Point    Singapore ,0.6872770410725872,13.211444276342869,5.26395905526798,0.10154517311656387
28,23415385,2 ROOM,https://www.propertyguru.com.sg/listing/hdb-for-sale-447b-jalan-kayu-23415385,https://sg1-cdn.pgimgs.com/listing/23415385/UPHO.127714284.R400X300/447B-Jalan-Kayu-Seletar-Yio-Chu-Kang-Singapore.jpg,447B Jalan Kayu,46.91608060275551,2012,90,300000,1.39246632922429,103.873207670352,28,Fernvale,0.3422678173538778,The   Seletar   Mall    Singapore ,0.34648944459387954,10.736181866351007,3.007836934922487,0.08766089606685909
29,23408448,2 ROOM,https://www.propertyguru.com.sg/listing/hdb-for-sale-423-clementi-avenue-1-23408448,https://sg1-cdn.pgimgs.com/listing/23408448/UPHO.127626190.R400X300/423-Clementi-Avenue-1-Buona-Vista-West-Coast-Clementi-New-Town-Singapore.jpg,423 Clementi Avenue 1,49.98188388966825,2011,89,348000,1.30945612208303,103.769918822857,5,Clementi,0.792955014989706,321 Clementi Singapore,0.6208113427223,6.9781326278084315,0.5586103642724913,0.1407409142401102
30,23427314,2 ROOM,https://www.propertyguru.com.sg/listing/hdb-for-sale-366a-sembawang-crescent-23427314,https://sg1-cdn.pgimgs.com/listing/23427314/UPHO.128396412.R400X300/366A-Sembawang-Crescent-Sembawang-Yishun-Singapore.jpg,366A Sembawang Crescent,47.93801503172642,2018,96,300000,1.4438005069825,103.816211984803,27,Sembawang,0.7311299968038353,Sun   Plaza    Singapore ,0.6127003985732561,15.551399775210463,1.90338500119062,0.6077956359974924
31,23469639,2 ROOM,https://www.propertyguru.com.sg/listing/hdb-for-sale-620-bedok-reservoir-road-23469639,https://sg2-cdn.pgimgs.com/listing/23469639/UPHO.128419753.R400X300/620-Bedok-Reservoir-Road-Bedok-Upper-East-Coast-Singapore.jpg,620 Bedok Reservoir Road,44.96511487472013,1980,58,235000,1.33433432226397,103.917712559288,16,Bedok North,0.11054114346763882,Djitsun   Mall   Bedok    Singapore ,1.6110683047309358,10.019637721864465,0.42717560835953733,0.3439002313025996
32,23468438,2 ROOM,https://www.propertyguru.com.sg/listing/hdb-for-sale-116-ang-mo-kio-avenue-4-23468438,https://sg2-cdn.pgimgs.com/listing/23468438/UPHO.128403727.R400X300/116-Ang-Mo-Kio-Avenue-4-Ang-Mo-Kio-Bishan-Thomson-Singapore.jpg,116 Ang Mo Kio Avenue 4,44.03608357565567,1977,55,240000,1.3733463501491,103.8364593481,20,Yio Chu Kang,1.3272131691238185,Broadway   Plaza    Singapore ,1.069212411416145,7.623707878786828,0.33689736540080506,0.36801659858826247
33,23466267,2 ROOM,https://www.propertyguru.com.sg/listing/hdb-for-sale-8-lorong-lew-lian-23466267,https://sg2-cdn.pgimgs.com/listing/23466267/UPHO.128371347.R400X300/8-Lorong-Lew-Lian-Hougang-Punggol-Sengkang-Singapore.jpg,8 Lorong Lew Lian,44.03608357565567,1977,55,270000,1.3489086885502,103.876715676102,19,Serangoon,0.358491712617768,Upper   Serangoon   Shopping   Centre    Singapore ,0.5600312633897033,6.934086256950309,1.5372201300001567,0.44962763812392453
34,22763486,2 ROOM,https://www.propertyguru.com.sg/listing/hdb-for-sale-38-bedok-south-road-22763486,https://sg2-cdn.pgimgs.com/listing/22763486/UPHO.127976547.R400X300/38-Bedok-South-Road-Bedok-Upper-East-Coast-Singapore.jpg,38 Bedok South Road,44.03608357565567,1977,55,258000,1.32082560856834,103.938994585574,16,Bedok,1.0405345012303715,Bedok   Point    Singapore ,0.8575764846722173,11.967554617670034,0.39307468424714065,0.47142714949702025
35,23456390,2 ROOM,https://www.propertyguru.com.sg/listing/hdb-for-sale-96-commonwealth-crescent-23456390,https://sg2-cdn.pgimgs.com/listing/23456390/UPHO.128241699.R400X300/96-Commonwealth-Crescent-Alexandra-Commonwealth-Singapore.jpg,96 Commonwealth Crescent,46.91608060275551,1964,42,260000,1.30619182602956,103.8011938191,3,Commonwealth,0.5251402159975694,Holland   Village   Shopping   Mall    Singapore ,0.8024836166743534,3.4859522008039243,0.12962347885695677,0.5907020035250619
36,20529792,2 ROOM,https://www.propertyguru.com.sg/listing/hdb-for-sale-10-jalan-kukoh-20529792,https://sg1-cdn.pgimgs.com/listing/20529792/UPHO.109620378.R400X300/10-Jalan-Kukoh-Alexandra-Commonwealth-Singapore.jpg,10 Jalan Kukoh,52.95478404667453,1970,48,290000,1.28697383443979,103.839075823483,3,Chinatown,0.5723182618005642,People's   Park   Complex    Singapore ,0.5022513759936328,2.121918455002761,0.16925561087361818,0.27865644102612414
37,23456356,2 ROOM,https://www.propertyguru.com.sg/listing/hdb-for-sale-96-commonwealth-crescent-23456356,https://sg2-cdn.pgimgs.com/listing/23456356/UPHO.128241121.R400X300/96-Commonwealth-Crescent-Alexandra-Commonwealth-Singapore.jpg,96 Commonwealth Crescent,46.91608060275551,1964,42,260000,1.30619182602956,103.8011938191,3,Commonwealth,0.5251402159975694,Holland   Village   Shopping   Mall    Singapore ,0.8024836166743534,3.4859522008039243,0.12962347885695677,0.5907020035250619
38,23451570,2 ROOM,https://www.propertyguru.com.sg/listing/hdb-for-sale-106-bedok-north-avenue-4-23451570,https://sg2-cdn.pgimgs.com/listing/23451570/UPHO.128177811.R400X300/106-Bedok-North-Avenue-4-Bedok-Upper-East-Coast-Singapore.jpg,106 Bedok North Avenue 4,43.66447105602988,1977,55,268000,1.33445895034227,103.937087136194,16,Bedok Reservoir,0.5058010475570418,East   Village    Singapore ,1.0561800948933147,12.079535499952284,0.3299674049897011,0.20924386611307524
39,23430060,2 ROOM,https://www.propertyguru.com.sg/listing/hdb-for-sale-180b-boon-lay-drive-23430060,https://sg2-cdn.pgimgs.com/listing/23430060/UPHO.127896743.R400X300/180B-Boon-Lay-Drive-Boon-Lay-Jurong-Tuas-Singapore.jpg,180B Boon Lay Drive,47.00898373266195,2012,90,260000,1.34783388779636,103.709071002443,22,Boon Lay,1.0865212728478006,Boon   Lay   Shopping   Centre    Singapore ,0.4115388706550847,14.53054892746283,0.527984857538515,0.4115388706550847
40,23276068,2 ROOM,https://www.propertyguru.com.sg/listing/hdb-for-sale-43-moh-guan-terrace-23276068,https://sg2-cdn.pgimgs.com/listing/23276068/UPHO.125981515.R400X300/43-Moh-Guan-Terrace-Alexandra-Commonwealth-Singapore.jpg,43 Moh Guan Terrace,66.98315666254797,1973,51,600000,1.28467056650891,103.831049307715,3,Tiong Bahru,0.5009683698177686,Tiong   Bahru   Plaza    Singapore ,0.4305561920149217,2.2551335604396816,0.15256343758562657,0.19528095448610017
41,23451021,2 ROOM,https://www.propertyguru.com.sg/listing/hdb-for-sale-50-havelock-road-23451021,https://sg2-cdn.pgimgs.com/listing/23451021/UPHO.128171035.R400X300/50-Havelock-Road-Alexandra-Commonwealth-Singapore.jpg,50 Havelock Road,42.921246016778305,1973,51,260000,1.28977813910145,103.826793749912,3,Tiong Bahru,0.3588507891528474,Tiong   Bahru   Plaza    Singapore ,0.3923513550264857,1.797900412741788,0.12423431716796836,0.0018026497816418998
42,23469771,2 ROOM,https://www.propertyguru.com.sg/listing/hdb-for-sale-81-tiong-poh-road-23469771,https://sg2-cdn.pgimgs.com/listing/23469771/UPHO.128421545.R400X300/81-Tiong-Poh-Road-Alexandra-Commonwealth-Singapore.jpg,81 Tiong Poh Road,83.6128169158019,1967,45,1150000,1.28259669409394,103.832878803965,3,Outram Park,0.774106373404725,Tiong   Bahru   Plaza    Singapore ,0.7234021433819866,2.4800741191163542,0.23781444177791072,0.24566227388659997
43,23461524,2 ROOM,https://www.propertyguru.com.sg/listing/hdb-for-sale-54-lorong-5-toa-payoh-23461524,https://sg2-cdn.pgimgs.com/listing/23461524/UPHO.128310469.R400X300/54-Lorong-5-Toa-Payoh-Balestier-Toa-Payoh-Singapore.jpg,54 Lorong 5 Toa Payoh,42.08511784762029,1967,45,259999,1.33735666370269,103.850390748824,12,Braddell,0.5099682237538067,HDB   Hub   Singapore ,0.6833175159880466,4.119617299700617,0.15507542388910064,0.4203384334424292
44,23458853,2 ROOM,https://www.propertyguru.com.sg/listing/hdb-for-sale-120-lorong-2-toa-payoh-23458853,https://sg1-cdn.pgimgs.com/listing/23458853/UPHO.128276256.R400X300/120-Lorong-2-Toa-Payoh-Balestier-Toa-Payoh-Singapore.jpg,120 Lorong 2 Toa Payoh,40.041248989678465,1967,45,235000,1.33913568992412,103.845562921008,12,Braddell,0.2320610187512268,HDB   Hub   Singapore ,0.800559986806163,4.073647900836708,0.148279272639228,0.7295953779628008
45,23457897,2 ROOM,https://www.propertyguru.com.sg/listing/hdb-for-sale-40-beo-crescent-23457897,https://sg2-cdn.pgimgs.com/listing/23457897/UPHO.128263333.R400X300/40-Beo-Crescent-Alexandra-Commonwealth-Singapore.jpg,40 Beo Crescent,50.91091518873271,1971,49,240000,1.2890578915448,103.827513018252,3,Tiong Bahru,0.2851146523283164,Tiong   Bahru   Plaza    Singapore ,0.30316017759474423,1.847337472278392,0.02724367256139365,0.11139885487533281
46,23221629,2 ROOM,https://www.propertyguru.com.sg/listing/hdb-for-sale-2-jalan-bukit-ho-swee-23221629,https://sg2-cdn.pgimgs.com/listing/23221629/UPHO.125222615.R400X300/2-Jalan-Bukit-Ho-Swee-Alexandra-Commonwealth-Singapore.jpg,2 Jalan Bukit Ho Swee,34.00254554575944,1962,40,285000,1.28728822015939,103.831873006286,3,Tiong Bahru,0.5526559644535022,Tiong   Bahru   Plaza    Singapore ,0.4921162956977112,1.9594292316599518,0.2654523370718957,0.39754525070369645
47,23065470,2 ROOM,https://www.propertyguru.com.sg/listing/hdb-for-sale-77-indus-road-23065470,https://sg2-cdn.pgimgs.com/listing/23065470/UPHO.123012137.R400X300/77-Indus-Road-Alexandra-Commonwealth-Singapore.jpg,77 Indus Road,74.97282583450237,1972,50,450000,1.29113483646901,103.826764453591,3,Tiong Bahru,0.509700267386648,Tiong   Bahru   Plaza    Singapore ,0.5411837960223712,1.6589493394294437,0.26479009772326223,0.15240625863301666
48,23447380,2 ROOM,https://www.propertyguru.com.sg/listing/hdb-for-sale-82-commonwealth-close-23447380,https://sg1-cdn.pgimgs.com/listing/23447380/UPHO.128123420.R400X300/82-Commonwealth-Close-Alexandra-Commonwealth-Singapore.jpg,82 Commonwealth Close,45.987049303691045,1964,42,260999,1.30422175099776,103.800399923418,3,Commonwealth,0.3040557083878705,IMM Singapore,0.7807218577800186,3.5720274810079515,0.3172643473755763,0.36303456264919715
49,23443121,2 ROOM,https://www.propertyguru.com.sg/listing/hdb-for-sale-28-hoy-fatt-road-23443121,https://sg1-cdn.pgimgs.com/listing/23443121/UPHO.128065886.R400X300/28-Hoy-Fatt-Road-Alexandra-Commonwealth-Singapore.jpg,28 Hoy Fatt Road,46.91608060275551,1967,45,298000,1.28675654367639,103.810121713045,3,Redhill,0.8088641324913389,Alexandra   Central    Singapore ,0.5470942785327776,3.2049598698882216,0.22270639267571474,0.20694475444070726
50,23441687,2 ROOM,https://www.propertyguru.com.sg/listing/hdb-for-sale-30-balam-road-23441687,https://sg2-cdn.pgimgs.com/listing/23441687/UPHO.128047689.R400X300/30-Balam-Road-Macpherson-Potong-Pasir-Singapore.jpg,30 Balam Road,45.987049303691045,1965,43,230000,1.32965461509134,103.887183600084,13,MacPherson,0.44068995526214183,Grantral   Mall    Singapore ,0.4539291711873784,6.67066369207834,0.20085977353905826,0.12955307829973212
51,23391914,2 ROOM,https://www.propertyguru.com.sg/listing/hdb-for-sale-20-jalan-klinik-23391914,https://sg2-cdn.pgimgs.com/listing/23391914/UPHO.127406541.R400X300/20-Jalan-Klinik-Alexandra-Commonwealth-Singapore.jpg,20 Jalan Klinik,48.03091816163287,1963,41,280000,1.28811451810468,103.829040334276,3,Tiong Bahru,0.28941397188144175,Tiong   Bahru   Plaza    Singapore ,0.25829294448214424,1.9059910736498873,0.06590707937124513,0.2908083074142674
52,23431333,2 ROOM,https://www.propertyguru.com.sg/listing/hdb-for-sale-168-stirling-road-23431333,https://sg2-cdn.pgimgs.com/listing/23431333/UPHO.127911691.R400X300/168-Stirling-Road-Alexandra-Commonwealth-Singapore.jpg,168 Stirling Road,71.53541002796385,1970,48,350000,1.29002050735811,103.80318804437,3,Queenstown,0.6176113383291483,Anchorpoint    Singapore ,0.2558493232015383,3.6568695859369247,0.3589664590474082,0.09933144176498289
53,23425831,2 ROOM,https://www.propertyguru.com.sg/listing/hdb-for-sale-10-jalan-bukit-ho-swee-23425831,https://sg2-cdn.pgimgs.com/listing/23425831/UPHO.127843435.R400X300/10-Jalan-Bukit-Ho-Swee-Alexandra-Commonwealth-Singapore.jpg,10 Jalan Bukit Ho Swee,34.00254554575944,1962,40,250000,1.28745837020187,103.832675765986,3,Tiong Bahru,0.6437349724361839,Tiong   Bahru   Plaza    Singapore ,0.5833371897321058,1.9392402739019763,0.30956695759428976,0.37540739085419317
54,23456042,3 ROOM,https://www.propertyguru.com.sg/listing/hdb-for-sale-6-teck-whye-avenue-23456042,https://sg2-cdn.pgimgs.com/listing/23456042/UPHO.128237539.R400X300/6-Teck-Whye-Avenue-Dairy-Farm-Bukit-Panjang-Choa-Chu-Kang-Singapore.jpg,6 Teck Whye Avenue,73.95089140553145,1983,61,320000,1.38158682710709,103.753828251753,23,Teck Whye,0.5394710425309199,Teck   Whye   Shopping   Centre    Singapore ,0.2286214793020296,12.216799005824537,4.590749903221638,0.1901888607372503
55,23453839,3 ROOM,https://www.propertyguru.com.sg/listing/hdb-for-sale-665c-punggol-drive-23453839,https://sg2-cdn.pgimgs.com/listing/23453839/UPHO.128206993.R400X300/665C-Punggol-Drive-Hougang-Punggol-Sengkang-Singapore.jpg,665C Punggol Drive,67.91218796161243,2015,93,430000,1.4014916460804,103.914459128885,19,Oasis,0.21177671098534076,Oasis   Terraces    Singapore ,0.18332360098565076,14.08268381234249,5.673341822031859,0.28710064275645314
56,23444399,3 ROOM,https://www.propertyguru.com.sg/listing/hdb-for-sale-315b-punggol-way-23444399,https://sg2-cdn.pgimgs.com/listing/23444399/UPHO.128331449.R400X300/315B-Punggol-Way-Hougang-Punggol-Sengkang-Singapore.jpg,315B Punggol Way,66.98315666254797,2016,94,465000,1.40795602683384,103.896400767911,19,Sumang,0.25240794327164945,Waterway   Point    Singapore ,0.6408610744395425,13.481150784345598,5.553078315464619,0.28659855167974735
57,23391049,3 ROOM,https://www.propertyguru.com.sg/listing/hdb-for-sale-120a-edgedale-plains-23391049,https://sg2-cdn.pgimgs.com/listing/23391049/UPHO.127395823.R400X300/120A-Edgedale-Plains-Hougang-Punggol-Sengkang-Singapore.jpg,120A Edgedale Plains,68.00509109151888,2016,94,390000,1.39451217943806,103.907964274268,19,Meridian,0.2951302602050662,Rivervale   Mall    Singapore ,0.46446331016842074,13.02391266572171,4.6298239176198095,0.24257603833737038
58,23399269,3 ROOM,https://www.propertyguru.com.sg/listing/hdb-for-sale-113c-mcnair-road-23399269,https://sg2-cdn.pgimgs.com/listing/23399269/UPHO.127506501.R400X300/113C-Mcnair-Road-Balestier-Toa-Payoh-Singapore.jpg,113C Mcnair Road,68.00509109151888,2016,94,680000,1.32088235344697,103.860331710143,12,Boon Keng,0.17141385715796184,City   Square   Mall    Singapore ,1.152287044956072,3.565723441054714,0.3517041761403552,0.13356586886050176
59,23459127,3 ROOM,https://www.propertyguru.com.sg/listing/hdb-for-sale-116a-jalan-tenteram-23459127,https://sg1-cdn.pgimgs.com/listing/23459127/UPHO.128288922.R400X300/116A-Jalan-Tenteram-Balestier-Toa-Payoh-Singapore.jpg,116A Jalan Tenteram,66.98315666254797,2016,94,545000,1.3270531250321,103.860558381575,12,Boon Keng,0.7836935484920834,The   Poiz    Singapore ,0.9701009244755225,3.97250186385261,0.7562821738638309,0.4059704071839725
60,23470168,3 ROOM,https://www.propertyguru.com.sg/listing/hdb-for-sale-61c-strathmore-avenue-23470168,https://sg2-cdn.pgimgs.com/listing/23470168/UPHO.128427221.R400X300/61C-Strathmore-Avenue-Alexandra-Commonwealth-Singapore.jpg,61C Strathmore Avenue,69.02702552048979,2010,88,620000,1.29423642591379,103.812035249623,3,Queenstown,0.6854089877122029,Anchorpoint    Singapore ,1.0003416048605913,2.5678148083389867,0.9190311370288534,0.20826151658612074
61,23459787,3 ROOM,https://www.propertyguru.com.sg/listing/hdb-for-sale-663a-punggol-drive-23459787,https://sg1-cdn.pgimgs.com/listing/23459787/UPHO.128287536.R400X300/663A-Punggol-Drive-Hougang-Punggol-Sengkang-Singapore.jpg,663A Punggol Drive,64.93928780460614,2015,93,400000,1.40024347718059,103.91708004,19,Kadaloor,0.0909141506394664,Oasis   Terraces    Singapore ,0.5000148114566254,14.168700353982349,5.729032341890044,0.14339840243782354
62,23469917,3 ROOM,https://www.propertyguru.com.sg/listing/hdb-for-sale-671a-yishun-avenue-4-23469917,https://sg2-cdn.pgimgs.com/listing/23469917/UPHO.128423915.R400X300/671A-Yishun-Avenue-4-Sembawang-Yishun-Singapore.jpg,671A Yishun Avenue 4,68.00509109151888,2016,94,365000,1.41897568011422,103.842333395726,27,Khatib,1.0523251929508135,Wisteria   Mall    Singapore ,0.16326502584338146,12.731682812674173,2.1041075492646093,0.7782707102640982
63,23172775,3 ROOM,https://www.propertyguru.com.sg/listing/hdb-for-sale-87-dawson-road-23172775,https://sg2-cdn.pgimgs.com/listing/23172775/UPHO.124506699.R400X300/87-Dawson-Road-Alexandra-Commonwealth-Singapore.jpg,87 Dawson Road,64.93928780460614,2015,93,570000,1.29573042684509,103.809759937443,3,Queenstown,0.439489065654806,Anchorpoint    Singapore ,0.951248682449239,2.728304624067712,0.8110552156203675,0.04567516069810029
64,22437455,3 ROOM,https://www.propertyguru.com.sg/listing/hdb-for-sale-107-towner-road-22437455,https://sg2-cdn.pgimgs.com/listing/22437455/UPHO.115815349.R400X300/107-Towner-Road-Balestier-Toa-Payoh-Singapore.jpg,107 Towner Road,68.8412192606769,1982,60,480000,1.31979508625985,103.860435814245,12,Boon Keng,0.13946851518377978,City   Square   Mall    Singapore ,1.04477784115301,3.517230505753697,0.29453699017017804,0.2341774829019119
65,23408341,3 ROOM,https://www.propertyguru.com.sg/listing/hdb-for-sale-15-farrer-park-road-23408341,https://sg2-cdn.pgimgs.com/listing/23408341/UPHO.127631431.R400X300/15-Farrer-Park-Road-Farrer-Park-Serangoon-Rd-Singapore.jpg,15 Farrer Park Road,61.96638764759985,2002,80,523888,1.31104346812008,103.851660614786,8,Farrer Park,0.40065045567487617,Serangoon   Plaza    Singapore ,0.3886446388888866,2.2342942240705885,0.5535083263121989,0.4570775952328503
66,23445951,3 ROOM,https://www.propertyguru.com.sg/listing/hdb-for-sale-807a-chai-chee-road-23445951,https://sg2-cdn.pgimgs.com/listing/23445951/UPHO.128102793.R400X300/807A-Chai-Chee-Road-Bedok-Upper-East-Coast-Singapore.jpg,807A Chai Chee Road,66.98315666254797,2015,93,450000,1.32707387863851,103.923188202853,16,Bedok,0.8497175552093466,Djitsun   Mall   Bedok    Singapore ,0.722253549814699,10.375903563814932,0.5657945657578823,0.2888622183434498
67,23405793,3 ROOM,https://www.propertyguru.com.sg/listing/hdb-for-sale-476a-upper-serangoon-view-23405793,https://sg1-cdn.pgimgs.com/listing/23405793/UPHO.127589676.R400X300/476A-Upper-Serangoon-View-Hougang-Punggol-Sengkang-Singapore.jpg,476A Upper Serangoon View,66.98315666254797,2014,92,480000,1.37676038157719,103.904050364711,19,Kangkar,0.8273595591045341,Rivervale   Plaza    Singapore ,0.9989238296311341,11.272628567722352,2.8028477024965355,0.08367525125859587
68,23415509,3 ROOM,https://www.propertyguru.com.sg/listing/hdb-for-sale-28b-dover-crescent-23415509,https://sg1-cdn.pgimgs.com/listing/23415509/UPHO.127926826.R400X300/28B-Dover-Crescent-Buona-Vista-West-Coast-Clementi-New-Town-Singapore.jpg,28B Dover Crescent,69.95605681955425,2009,87,588000,1.30544397285961,103.781869025225,5,Dover,0.7570117654161617,Rochester   Mall    Singapore ,0.7312263937209972,5.631573458240104,0.9334127247280735,0.10975996582147493
69,21986603,3 ROOM,https://www.propertyguru.com.sg/listing/hdb-for-sale-5a-upper-boon-keng-road-21986603,https://sg2-cdn.pgimgs.com/listing/21986603/UPHO.110657045.R400X300/5A-Upper-Boon-Keng-Road-Eunos-Geylang-Paya-Lebar-Singapore.jpg,5A Upper Boon Keng Road,66.98315666254797,2010,88,500000,1.31327536019089,103.873489088653,14,Kallang,0.304906113419326,Kallang   Wave   Mall    Singapore ,1.0520090152242807,4.648109971020402,0.2848521987510589,0.1259186460584761
70,23468928,3 ROOM,https://www.propertyguru.com.sg/listing/hdb-for-sale-127c-kim-tian-road-23468928,https://sg2-cdn.pgimgs.com/listing/23468928/UPHO.128410461.R400X300/127C-Kim-Tian-Road-Alexandra-Commonwealth-Singapore.jpg,127C Kim Tian Road,61.96638764759985,2011,89,628000,1.28152280420003,103.830035757166,3,Tiong Bahru,0.6559862873128871,Tiong   Bahru   Plaza    Singapore ,0.6018734361689734,2.6138640111260276,0.4405226995605354,0.37431928994521374
71,22821298,3 ROOM,https://www.propertyguru.com.sg/listing/hdb-for-sale-528-bedok-north-street-3-22821298,https://sg1-cdn.pgimgs.com/listing/22821298/UPHO.119906568.R400X300/528-Bedok-North-Street-3-Bedok-Upper-East-Coast-Singapore.jpg,528 Bedok North Street 3,81.94056057748585,1979,57,380000,1.33490287587396,103.927838167286,16,Bedok Reservoir,0.6112744957705678,Djitsun   Mall   Bedok    Singapore ,1.0034416984272387,11.108421480168081,0.3641140811117239,0.38029765416715516
72,23458522,3 ROOM,https://www.propertyguru.com.sg/listing/hdb-for-sale-811a-choa-chu-kang-avenue-7-23458522,https://sg2-cdn.pgimgs.com/listing/23458522/UPHO.128271729.R400X300/811A-Choa-Chu-Kang-Avenue-7-Dairy-Farm-Bukit-Panjang-Choa-Chu-Kang-Singapore.jpg,811A Choa Chu Kang Avenue 7,68.00509109151888,2016,94,388000,1.3737308481902,103.745929784531,23,Keat Hong,0.6438540466589655,Keat   Hong   Shopping   Centre    Singapore ,0.4468001088024918,12.298323911210499,3.4776722873815573,0.44679918509998745
73,23468918,3 ROOM,https://www.propertyguru.com.sg/listing/hdb-for-sale-65-kallang-bahru-23468918,https://sg2-cdn.pgimgs.com/listing/23468918/UPHO.128410421.R400X300/65-Kallang-Bahru-Balestier-Toa-Payoh-Singapore.jpg,65 Kallang Bahru,74.97282583450237,1973,51,330000,1.31969547154615,103.868364964604,12,Geylang Bahru,0.3968368206573267,Aperia    Singapore ,1.2039356455570969,4.310578141905164,0.266133430523979,0.26737788814101354
74,23423381,3 ROOM,https://www.propertyguru.com.sg/listing/hdb-for-sale-128-yishun-street-11-23423381,https://sg2-cdn.pgimgs.com/listing/23423381/UPHO.127812685.R400X300/128-Yishun-Street-11-Sembawang-Yishun-Singapore.jpg,128 Yishun Street 11,73.95089140553145,1984,62,368000,1.43387793728634,103.831302218611,27,Yishun,0.6263807729066223,Northpoint   City    Singapore ,0.8574048272706789,14.342611800922832,0.4098302327676129,0.45939601401101526
75,23328512,3 ROOM,https://www.propertyguru.com.sg/listing/hdb-for-sale-285-tampines-street-22-23328512,https://sg1-cdn.pgimgs.com/listing/23328512/UPHO.126621800.R400X300/285-Tampines-Street-22-Pasir-Ris-Tampines-Singapore.jpg,285 Tampines Street 22,73.95089140553145,1983,61,428000,1.35001074194261,103.952816059954,18,Simei,0.7554811127013974,Eastpoint   Mall    Singapore ,0.8260370143775262,14.282112233901476,1.0281559509133107,0.30180777985639023
76,23468751,3 ROOM,https://www.propertyguru.com.sg/listing/hdb-for-sale-803b-keat-hong-close-23468751,https://sg1-cdn.pgimgs.com/listing/23468751/UPHO.128407824.R400X300/803B-Keat-Hong-Close-Dairy-Farm-Bukit-Panjang-Choa-Chu-Kang-Singapore.jpg,803B Keat Hong Close,67.91218796161243,2015,93,398000,1.37381927100148,103.743367182453,23,South View,0.7514239232567131,Keat   Hong   Shopping   Centre    Singapore ,0.41811024259782137,12.528569521778884,3.424887567870887,0.41810927904611755
77,23376102,3 ROOM,https://www.propertyguru.com.sg/listing/hdb-for-sale-91a-telok-blangah-street-31-23376102,https://sg1-cdn.pgimgs.com/listing/23376102/UPHO.127188502.R400X300/91A-Telok-Blangah-Street-31-Harbourfront-Telok-Blangah-Singapore.jpg,91A Telok Blangah Street 31,68.00509109151888,2017,95,709000,1.2766608269826,103.807130946622,4,Labrador Park,0.7118956131334939,Alexandra   Retail   Centre    Singapore ,0.7124880191611483,4.222276977641885,0.33622380069146796,0.416047542329256
78,23457816,3 ROOM,https://www.propertyguru.com.sg/listing/hdb-for-sale-108-bukit-purmei-road-23457816,https://sg2-cdn.pgimgs.com/listing/23457816/UPHO.128262073.R400X300/108-Bukit-Purmei-Road-Harbourfront-Telok-Blangah-Singapore.jpg,108 Bukit Purmei Road,74.0437945354379,1984,62,385000,1.2733573140352,103.825345821846,4,HarbourFront,1.0300603821792789,Vivo   City    Singapore ,1.0595711069039704,3.596799345108404,0.38182409595196126,0.8301213041180662
79,23434799,3 ROOM,https://www.propertyguru.com.sg/listing/hdb-for-sale-87-dawson-road-23434799,https://sg2-cdn.pgimgs.com/listing/23434799/UPHO.127955317.R400X300/87-Dawson-Road-Alexandra-Commonwealth-Singapore.jpg,87 Dawson Road,65.03219093451258,2015,93,718000,1.29573042684509,103.809759937443,3,Queenstown,0.439489065654806,Anchorpoint    Singapore ,0.951248682449239,2.728304624067712,0.8110552156203675,0.04567516069810029
80,23413125,3 ROOM,https://www.propertyguru.com.sg/listing/hdb-for-sale-15-farrer-park-road-23413125,https://sg1-cdn.pgimgs.com/listing/23413125/UPHO.127685726.R400X300/15-Farrer-Park-Road-Farrer-Park-Serangoon-Rd-Singapore.jpg,15 Farrer Park Road,61.96638764759985,2002,80,499000,1.31104346812008,103.851660614786,8,Farrer Park,0.40065045567487617,Serangoon   Plaza    Singapore ,0.3886446388888866,2.2342942240705885,0.5535083263121989,0.4570775952328503
81,23369479,3 ROOM,https://www.propertyguru.com.sg/listing/hdb-for-sale-7-boon-keng-road-23369479,https://sg2-cdn.pgimgs.com/listing/23369479/UPHO.127101331.R400X300/7-Boon-Keng-Road-Balestier-Toa-Payoh-Singapore.jpg,7 Boon Keng Road,69.95605681955425,2011,89,618000,1.31678922529742,103.861781918434,12,Boon Keng,0.36741210173200495,Aperia    Singapore ,0.8249148106383061,3.5108801880416083,0.3031013837695368,0.5996321781946606
82,23376127,3 ROOM,https://www.propertyguru.com.sg/listing/hdb-for-sale-12-kampong-arang-road-23376127,https://sg1-cdn.pgimgs.com/listing/23376127/UPHO.127185510.R400X300/12-Kampong-Arang-Road-East-Coast-Marine-Parade-Singapore.jpg,12 Kampong Arang Road,102.93666793634279,1982,60,560000,1.30082885462595,103.883694825656,15,Mountbatten,0.5896311626663188,Leisure   Park   Kallang    Singapore ,0.8038007243916359,5.706314250358745,0.17254883476296828,0.7851521404520938
83,23319448,3 ROOM,https://www.propertyguru.com.sg/listing/hdb-for-sale-311b-clementi-avenue-4-23319448,https://sg1-cdn.pgimgs.com/listing/23319448/UPHO.126515244.R400X300/311B-Clementi-Avenue-4-Buona-Vista-West-Coast-Clementi-New-Town-Singapore.jpg,311B Clementi Avenue 4,60.10832504947092,2015,93,606000,1.31944669077179,103.765649446368,5,Clementi,0.5039576002816766,The   Clementi   Mall    Singapore ,0.45530491972398157,7.608280643112648,0.7211174612130036,0.4275007734418412
84,23461730,3 ROOM,https://www.propertyguru.com.sg/listing/hdb-for-sale-296b-bukit-batok-street-22-23461730,https://sg2-cdn.pgimgs.com/listing/23461730/UPHO.128312709.R400X300/296B-Bukit-Batok-Street-22-Dairy-Farm-Bukit-Panjang-Choa-Chu-Kang-Singapore.jpg,296B Bukit Batok Street 22,67.54057544198665,2017,95,420000,1.34369381417078,103.747356802144,23,Bukit Batok,0.6474558443501444,West   Mall    Singapore ,0.7413434545047581,10.404261674421871,1.0568922412514479,0.577566006383958
85,21866313,3 ROOM,https://www.propertyguru.com.sg/listing/hdb-for-sale-138c-yuan-ching-road-21866313,https://sg1-cdn.pgimgs.com/listing/21866313/UPHO.108837964.R400X300/138C-Yuan-Ching-Road-Boon-Lay-Jurong-Tuas-Singapore.jpg,138C Yuan Ching Road,66.98315666254797,2014,92,448000,1.32843797727643,103.723795893377,22,Lakeside,1.7910744406213406,Taman   Jurong   Shopping   Centre    Singapore ,0.8030500739648158,12.367144896760715,0.7353276527777964,0.3662959680560999
86,23411023,3 ROOM,https://www.propertyguru.com.sg/listing/hdb-for-sale-668-chander-road-23411023,https://sg1-cdn.pgimgs.com/listing/23411023/UPHO.127895452.R400X300/668-Chander-Road-Farrer-Park-Serangoon-Rd-Singapore.jpg,668 Chander Road,72.92895697656054,1984,62,438000,1.30758124026887,103.851478219734,8,Little India,0.2517509309553247,Tekka   Centre    Singapore ,0.17799062337485044,2.127970358297509,0.1834973028383582,0.2754170225331267
87,22926693,3 ROOM,https://www.propertyguru.com.sg/listing/hdb-for-sale-530b-pasir-ris-drive-1-22926693,https://sg1-cdn.pgimgs.com/listing/22926693/UPHO.126550676.R400X300/530B-Pasir-Ris-Drive-1-Pasir-Ris-Tampines-Singapore.jpg,530B Pasir Ris Drive 1,65.03219093451258,2015,93,539000,1.37168953845761,103.949502101347,18,Pasir Ris,0.17264482658492988,White   Sands    Singapore ,0.07132074975863265,14.975174699691447,2.9316588204451404,0.09807597569362371
88,23428149,3 ROOM,https://www.propertyguru.com.sg/listing/hdb-for-sale-635-veerasamy-road-23428149,https://sg1-cdn.pgimgs.com/listing/23428149/UPHO.127873926.R400X300/635-Veerasamy-Road-Farrer-Park-Serangoon-Rd-Singapore.jpg,635 Veerasamy Road,71.99992567749608,1984,62,480000,1.30658850181779,103.855218716278,8,Jalan Besar,0.11802859267945795,Mustafa   Shopping   Centre    Singapore ,0.3826480241988258,2.5297582604757576,0.20378362878598213,0.2546811334677929
89,23467389,3 ROOM,https://www.propertyguru.com.sg/listing/hdb-for-sale-455a-ang-mo-kio-street-44-23467389,https://sg1-cdn.pgimgs.com/listing/23467389/UPHO.128386700.R400X300/455A-Ang-Mo-Kio-Street-44-Ang-Mo-Kio-Bishan-Thomson-Singapore.jpg,455A Ang Mo Kio Street 44,67.91218796161243,1982,60,595000,1.36817376241157,103.857520553516,20,Ang Mo Kio,0.905516937987743,myVillage Singapore,0.9007277802614695,7.564773887394378,0.1301678778628296,0.5936668371728177
90,23445056,3 ROOM,https://www.propertyguru.com.sg/listing/hdb-for-sale-204-tampines-street-21-23445056,https://sg2-cdn.pgimgs.com/listing/23445056/UPHO.128089659.R400X300/204-Tampines-Street-21-Pasir-Ris-Tampines-Singapore.jpg,204 Tampines Street 21,81.01152927842139,2015,93,430000,1.35217984684251,103.951695356215,18,Tampines East,0.6221530046232111,Tampines   Mall    Singapore ,0.8141594211663904,14.252725912685586,1.062792174641231,0.20321826656063324
91,23227802,3 ROOM,https://www.propertyguru.com.sg/listing/hdb-for-sale-87-dawson-road-23227802,https://sg1-cdn.pgimgs.com/listing/23227802/UPHO.125306042.R400X300/87-Dawson-Road-Alexandra-Commonwealth-Singapore.jpg,87 Dawson Road,64.93928780460614,2016,94,690000,1.29573042684509,103.809759937443,3,Queenstown,0.439489065654806,Anchorpoint    Singapore ,0.951248682449239,2.728304624067712,0.8110552156203675,0.04567516069810029
92,23432110,3 ROOM,https://www.propertyguru.com.sg/listing/hdb-for-sale-122b-edgedale-plains-23432110,https://sg2-cdn.pgimgs.com/listing/23432110/UPHO.127920975.R400X300/122B-Edgedale-Plains-Hougang-Punggol-Sengkang-Singapore.jpg,122B Edgedale Plains,68.00509109151888,2014,92,399000,1.39415009117251,103.909595974135,19,Meridian,0.3268452695276902,Punggol   Plaza    Singapore ,0.3917477212016612,13.11093799503862,4.694243078620457,0.2734512322004793
93,23457024,3 ROOM,https://www.propertyguru.com.sg/listing/hdb-for-sale-137-potong-pasir-avenue-3-23457024,https://sg2-cdn.pgimgs.com/listing/23457024/UPHO.128250799.R400X300/137-Potong-Pasir-Avenue-3-Macpherson-Potong-Pasir-Singapore.jpg,137 Potong Pasir Avenue 3,74.0437945354379,1983,61,438000,1.33385759374196,103.865845367722,13,Potong Pasir,0.4315349485594703,The   Poiz    Singapore ,0.37821615191983404,4.9081341500288,0.9911263854443343,0.19901169032400456
94,23448100,3 ROOM,https://www.propertyguru.com.sg/listing/hdb-for-sale-661a-edgedale-plains-23448100,https://sg1-cdn.pgimgs.com/listing/23448100/UPHO.128133544.R400X300/661A-Edgedale-Plains-Hougang-Punggol-Sengkang-Singapore.jpg,661A Edgedale Plains,66.98315666254797,2016,94,438000,1.40303056639257,103.917080721325,19,Kadaloor,0.38261451957408776,Oasis   Terraces    Singapore ,0.4258221708563766,14.40210985214977,5.979482024447516,0.4129671199895335
95,23465602,3 ROOM,https://www.propertyguru.com.sg/listing/hdb-for-sale-194b-bukit-batok-west-avenue-6-23465602,https://sg1-cdn.pgimgs.com/listing/23465602/UPHO.128378800.R400X300/194B-Bukit-Batok-West-Avenue-6-Dairy-Farm-Bukit-Panjang-Choa-Chu-Kang-Singapore.jpg,194B Bukit Batok West Avenue 6,67.91218796161243,2016,94,500000,1.3451328390019,103.744861953262,23,Bukit Batok,0.684479338987968,West   Mall    Singapore ,0.7339998006801607,10.723026223764897,0.7998300739973416,0.2818613722872447
96,23448532,3 ROOM,https://www.propertyguru.com.sg/listing/hdb-for-sale-70b-telok-blangah-heights-23448532,https://sg1-cdn.pgimgs.com/listing/23448532/UPHO.128139016.R400X300/70B-Telok-Blangah-Heights-Harbourfront-Telok-Blangah-Singapore.jpg,70B Telok Blangah Heights,68.00509109151888,1983,61,648000,1.27674945693288,103.810541543465,4,Telok Blangah,0.6690760297358064,Alexandra   Retail   Centre    Singapore ,1.0690554794239442,3.97101216477539,0.4685272848503826,0.4148129531536635
97,23425825,3 ROOM,https://www.propertyguru.com.sg/listing/hdb-for-sale-301-hougang-avenue-5-23425825,https://sg1-cdn.pgimgs.com/listing/23425825/UPHO.128015906.R400X300/301-Hougang-Avenue-5-Hougang-Punggol-Sengkang-Singapore.jpg,301 Hougang Avenue 5,73.95089140553145,2016,94,378000,1.36778751494033,103.89392989782,19,Hougang,0.4312827420480489,The   Midtown    Singapore ,0.3276412807459619,9.77228619857663,1.3033299547185446,0.2222868245922014
98,23336781,3 ROOM,https://www.propertyguru.com.sg/listing/hdb-for-sale-10b-bendemeer-road-23336781,https://sg2-cdn.pgimgs.com/listing/23336781/UPHO.127869043.R400X300/10B-Bendemeer-Road-Balestier-Toa-Payoh-Singapore.jpg,10B Bendemeer Road,68.00509109151888,2016,94,640000,1.31547715332072,103.860312930116,12,Bendemeer,0.36885762506313624,City   Square   Mall    Singapore ,0.6265713548731263,3.3054766859797056,0.5134226435900319,0.42646762186605075
99,23349662,3 ROOM,https://www.propertyguru.com.sg/listing/hdb-for-sale-122a-edgedale-plains-23349662,https://sg1-cdn.pgimgs.com/listing/23349662/UPHO.126872032.R400X300/122A-Edgedale-Plains-Hougang-Punggol-Sengkang-Singapore.jpg,122A Edgedale Plains,68.00509109151888,2016,94,390000,1.39350981217359,103.909106562659,19,Meridian,0.38910145033151056,Punggol   Plaza    Singapore ,0.4522226470556831,13.021495831302117,4.604812262424578,0.3334117357932256
100,23450831,3 ROOM,https://www.propertyguru.com.sg/listing/hdb-for-sale-878b-tampines-avenue-8-23450831,https://sg2-cdn.pgimgs.com/listing/23450831/UPHO.128168377.R400X300/878B-Tampines-Avenue-8-Pasir-Ris-Tampines-Singapore.jpg,878B Tampines Avenue 8,68.00509109151888,2017,95,428000,1.35092636694988,103.929191231421,18,Tampines West,1.1686535111806202,Our   Tampines   Hub    Singapore ,1.2756685828866359,11.902527497107164,1.8045804997835937,0.5886108189583751
101,23375565,3 ROOM,https://www.propertyguru.com.sg/listing/hdb-for-sale-93a-telok-blangah-street-31-23375565,https://sg2-cdn.pgimgs.com/listing/23375565/UPHO.127178165.R400X300/93A-Telok-Blangah-Street-31-Harbourfront-Telok-Blangah-Singapore.jpg,93A Telok Blangah Street 31,67.91218796161243,2016,94,570000,1.27532678702066,103.807325814897,4,Telok Blangah,0.5808158354498703,Alexandra   Retail   Centre    Singapore ,0.681811489647983,4.319641240301839,0.1864181483751267,0.28059361555706924
102,23402257,3 ROOM,https://www.propertyguru.com.sg/listing/hdb-for-sale-661a-edgedale-plains-23402257,https://sg1-cdn.pgimgs.com/listing/23402257/UPHO.127543614.R400X300/661A-Edgedale-Plains-Hougang-Punggol-Sengkang-Singapore.jpg,661A Edgedale Plains,66.98315666254797,2014,92,450000,1.40303056639257,103.917080721325,19,Kadaloor,0.38261451957408776,Oasis   Terraces    Singapore ,0.4258221708563766,14.40210985214977,5.979482024447516,0.4129671199895335
103,23463963,3 ROOM,https://www.propertyguru.com.sg/listing/hdb-for-sale-547c-segar-road-23463963,https://sg2-cdn.pgimgs.com/listing/23463963/UPHO.128341941.R400X300/547C-Segar-Road-Dairy-Farm-Bukit-Panjang-Choa-Chu-Kang-Singapore.jpg,547C Segar Road,66.98315666254797,2013,91,399000,1.38853827277488,103.768773256544,23,Segar,0.1297950628225504,Greenridge   Shopping   Centre    Singapore ,0.4487248208251055,11.692837026822124,5.5010542048037,0.09512826042425873
104,23425597,3 ROOM,https://www.propertyguru.com.sg/listing/hdb-for-sale-886a-woodlands-drive-50-23425597,https://sg2-cdn.pgimgs.com/listing/23425597/UPHO.127839975.R400X300/886A-Woodlands-Drive-50-Admiralty-Woodlands-Singapore.jpg,886A Woodlands Drive 50,66.98315666254797,1937,15,399000,1.43829151566127,103.794612853493,25,Woodlands,0.9237871935558101,888 Plaza Singapore,0.15205970760157225,15.419844907279625,2.0437668816336143,0.15205970760157225
105,23364500,3 ROOM,https://www.propertyguru.com.sg/listing/hdb-for-sale-56-eng-hoon-street-23364500,https://sg1-cdn.pgimgs.com/listing/23364500/UPHO.127058158.R400X300/56-Eng-Hoon-Street-Alexandra-Commonwealth-Singapore.jpg,56 Eng Hoon Street,124.02567842510615,2014,92,1550000,1.28424137023495,103.833923067555,3,Outram Park,0.7542944233811132,Tiong   Bahru   Plaza    Singapore ,0.7455474094919907,2.3021339003298866,0.1740819450617336,0.030430464345011173
106,22061241,3 ROOM,https://www.propertyguru.com.sg/listing/hdb-for-sale-520a-tampines-central-8-22061241,https://sg2-cdn.pgimgs.com/listing/22061241/UPHO.111577203.R400X300/520A-Tampines-Central-8-Pasir-Ris-Tampines-Singapore.jpg,520A Tampines Central 8,62.0592907775063,1977,55,510000,1.35701024664546,103.939911246503,18,Tampines,0.4732692105370268,Tampines 1    Singapore ,0.40177083721964874,13.26966772728963,1.35205842700684,0.6353724854152535
107,23390443,3 ROOM,https://www.propertyguru.com.sg/listing/hdb-for-sale-10-teck-whye-avenue-23390443,https://sg2-cdn.pgimgs.com/listing/23390443/UPHO.127387103.R400X300/10-Teck-Whye-Avenue-Dairy-Farm-Bukit-Panjang-Choa-Chu-Kang-Singapore.jpg,10 Teck Whye Avenue,66.98315666254797,2013,91,318888,1.38047055057828,103.755211075265,23,Phoenix,0.36353352607182204,Teck   Whye   Shopping   Centre    Singapore ,0.30890486297,12.020096728892023,4.539731339386338,0.23771626185465525
108,23453138,3 ROOM,https://www.propertyguru.com.sg/listing/hdb-for-sale-448a-sengkang-west-way-23453138,https://sg1-cdn.pgimgs.com/listing/23453138/UPHO.128198946.R400X300/448A-Sengkang-West-Way-Seletar-Yio-Chu-Kang-Singapore.jpg,448A Sengkang West Way,66.98315666254797,2013,91,398000,1.39293649855269,103.87299848136,28,Fernvale,0.37579118642439474,The   Seletar   Mall    Singapore ,0.3871239847952748,10.773888333090632,3.0298846188606414,0.10519172212961046
109,23464209,3 ROOM,https://www.propertyguru.com.sg/listing/hdb-for-sale-348c-yishun-avenue-11-23464209,https://sg1-cdn.pgimgs.com/listing/23464209/UPHO.128344568.R400X300/348C-Yishun-Avenue-11-Sembawang-Yishun-Singapore.jpg,348C Yishun Avenue 11,66.98315666254797,2016,94,460000,1.42714143019714,103.84223128885,27,Yishun,0.8468253633522528,Northpoint   City    Singapore ,0.6782263276301058,13.63565702536951,1.6268160818338433,0.3262813827992204
110,23406547,3 ROOM,https://www.propertyguru.com.sg/listing/hdb-for-sale-10a-bendemeer-road-23406547,https://sg1-cdn.pgimgs.com/listing/23406547/UPHO.127599334.R400X300/10A-Bendemeer-Road-Balestier-Toa-Payoh-Singapore.jpg,10A Bendemeer Road,67.91218796161243,2016,94,698000,1.31499138887312,103.86050538635,12,Bendemeer,0.32330096363267663,City   Square   Mall    Singapore ,0.6016421561296403,3.306757924753775,0.5468268871621405,0.4342497517930906
111,23452049,3 ROOM,https://www.propertyguru.com.sg/listing/hdb-for-sale-662b-edgedale-plains-23452049,https://sg1-cdn.pgimgs.com/listing/23452049/UPHO.128183396.R400X300/662B-Edgedale-Plains-Hougang-Punggol-Sengkang-Singapore.jpg,662B Edgedale Plains,66.98315666254797,2014,92,449000,1.40172153675655,103.918690999509,19,Kadaloor,0.3336451661631672,Oasis   Terraces    Singapore ,0.6110351703230067,14.410501703803321,5.968226961809045,0.38609196871344936
112,23392943,3 ROOM,https://www.propertyguru.com.sg/listing/hdb-for-sale-32-ghim-moh-link-23392943,https://sg1-cdn.pgimgs.com/listing/23392943/UPHO.127420938.R400X300/32-Ghim-Moh-Link-Tanglin-Holland-Bukit-Timah-Singapore.jpg,32 Ghim Moh Link,67.91218796161243,2017,95,630000,1.3100634072092,103.784498087029,10,Dover,0.6730793973261291,The   Star   Vista    Singapore ,0.569836156144103,5.36978800015288,0.4266486362407586,0.2765734385458141
113,23409580,3 ROOM,https://www.propertyguru.com.sg/listing/hdb-for-sale-879a-tampines-avenue-8-23409580,https://sg2-cdn.pgimgs.com/listing/23409580/UPHO.127640897.R400X300/879A-Tampines-Avenue-8-Pasir-Ris-Tampines-Singapore.jpg,879A Tampines Avenue 8,67.91218796161243,2016,94,450000,1.35188475480754,103.929100689045,18,Tampines West,1.2345455126636795,Our   Tampines   Hub    Singapore ,1.2785114018787616,11.939686753043492,1.850471899866809,0.6486062338704377
114,23392976,3 ROOM,https://www.propertyguru.com.sg/listing/hdb-for-sale-12-kampong-arang-road-23392976,https://sg2-cdn.pgimgs.com/listing/23392976/UPHO.127421361.R400X300/12-Kampong-Arang-Road-Kampong-Arang-Road-Singapore.jpg,Kampong Arang Road,103.02957106624923,1982,60,560000,1.30082885462595,103.883694825656,15,Mountbatten,0.5896311626663188,Leisure   Park   Kallang    Singapore ,0.8038007243916359,5.706314250358745,0.17254883476296828,0.7851521404520938
115,23133076,3 ROOM,https://www.propertyguru.com.sg/listing/hdb-for-sale-311a-clementi-avenue-4-23133076,https://sg1-cdn.pgimgs.com/listing/23133076/UPHO.123939320.R400X300/311A-Clementi-Avenue-4-Buona-Vista-West-Coast-Clementi-New-Town-Singapore.jpg,311A Clementi Avenue 4,59.92251878965803,2015,93,528888,1.31911656776897,103.765492195959,5,Clementi,0.46638467684706947,The   Clementi   Mall    Singapore ,0.41535015217492266,7.617659749302585,0.6820146608416797,0.4283619641789303
116,23460218,3 ROOM,https://www.propertyguru.com.sg/listing/hdb-for-sale-539-bukit-batok-street-52-23460218,https://sg1-cdn.pgimgs.com/listing/23460218/UPHO.128293684.R400X300/539-Bukit-Batok-Street-52-Dairy-Farm-Bukit-Panjang-Choa-Chu-Kang-Singapore.jpg,539 Bukit Batok Street 52,72.92895697656054,1985,63,338000,1.35476518284145,103.750885053123,23,Bukit Gombak,0.48793692859701904,West   Mall    Singapore ,0.5513050093183606,10.635432434058655,1.9141408533811677,0.4207561375214196
117,23439613,3 ROOM,https://www.propertyguru.com.sg/listing/hdb-for-sale-18a-circuit-road-23439613,https://sg2-cdn.pgimgs.com/listing/23439613/UPHO.128145671.R400X300/18A-Circuit-Road-Macpherson-Potong-Pasir-Singapore.jpg,18A Circuit Road,66.98315666254797,2015,93,515000,1.32932082372457,103.888071748726,13,MacPherson,0.3490917634009729,Grantral   Mall    Singapore ,0.4930819119783169,6.74569138215275,0.19475530816803333,0.02504366352781768
118,23412774,3 ROOM,https://www.propertyguru.com.sg/listing/hdb-for-sale-128-yishun-street-11-23412774,https://sg1-cdn.pgimgs.com/listing/23412774/UPHO.127681140.R400X300/128-Yishun-Street-11-Sembawang-Yishun-Singapore.jpg,128 Yishun Street 11,73.95089140553145,1984,62,333000,1.43387793728634,103.831302218611,27,Yishun,0.6263807729066223,Northpoint   City    Singapore ,0.8574048272706789,14.342611800922832,0.4098302327676129,0.45939601401101526
119,21740379,3 ROOM,https://www.propertyguru.com.sg/listing/hdb-for-sale-26a-jalan-membina-21740379,https://sg1-cdn.pgimgs.com/listing/21740379/UPHO.106610858.R400X300/26A-Jalan-Membina-Alexandra-Commonwealth-Singapore.jpg,26A Jalan Membina,59.92251878965803,2007,85,520000,1.28306228472369,103.826059892794,3,Tiong Bahru,0.40094522767037055,Tiong   Bahru   Plaza    Singapore ,0.39954844870231826,2.5321323640188576,0.3400133772678716,0.0701833928394618
120,23354497,3 ROOM,https://www.propertyguru.com.sg/listing/hdb-for-sale-116a-jalan-tenteram-23354497,https://sg1-cdn.pgimgs.com/listing/23354497/UPHO.126925878.R400X300/116A-Jalan-Tenteram-Balestier-Toa-Payoh-Singapore.jpg,116A Jalan Tenteram,66.98315666254797,2016,94,548888,1.3270531250321,103.860558381575,12,Boon Keng,0.7836935484920834,The   Poiz    Singapore ,0.9701009244755225,3.97250186385261,0.7562821738638309,0.4059704071839725
121,23323878,3 ROOM,https://www.propertyguru.com.sg/listing/hdb-for-sale-311a-clementi-avenue-4-23323878,https://sg2-cdn.pgimgs.com/listing/23323878/UPHO.126580919.R400X300/311A-Clementi-Avenue-4-Buona-Vista-West-Coast-Clementi-New-Town-Singapore.jpg,311A Clementi Avenue 4,60.015421919564474,2015,93,580000,1.31911656776897,103.765492195959,5,Clementi,0.46638467684706947,The   Clementi   Mall    Singapore ,0.41535015217492266,7.617659749302585,0.6820146608416797,0.4283619641789303
122,23221626,3 ROOM,https://www.propertyguru.com.sg/listing/hdb-for-sale-26-ghim-moh-link-23221626,https://sg1-cdn.pgimgs.com/listing/23221626/UPHO.125222594.R400X300/26-Ghim-Moh-Link-Tanglin-Holland-Bukit-Timah-Singapore.jpg,26 Ghim Moh Link,66.98315666254797,2011,89,500000,1.30838826045914,103.785551268112,10,Buona Vista,0.5131534113946868,The   Star   Vista    Singapore ,0.36790531904648155,5.236306415771095,0.4099635718536885,0.0629585153064488
123,23410712,3 ROOM,https://www.propertyguru.com.sg/listing/hdb-for-sale-10-jalan-kukoh-23410712,https://sg1-cdn.pgimgs.com/listing/23410712/UPHO.127655224.R400X300/10-Jalan-Kukoh-Alexandra-Commonwealth-Singapore.jpg,10 Jalan Kukoh,75.99476026347328,1970,48,395000,1.28697383443979,103.839075823483,3,Chinatown,0.5723182618005642,People's   Park   Complex    Singapore ,0.5022513759936328,2.121918455002761,0.16925561087361818,0.27865644102612414
124,23457971,3 ROOM,https://www.propertyguru.com.sg/listing/hdb-for-sale-808b-chai-chee-road-23457971,https://sg2-cdn.pgimgs.com/listing/23457971/UPHO.128345215.R400X300/808B-Chai-Chee-Road-Bedok-Upper-East-Coast-Singapore.jpg,808B Chai Chee Road,66.98315666254797,2015,93,500000,1.32747242201868,103.923868263972,16,Bedok,0.8010188566603629,Djitsun   Mall   Bedok    Singapore ,0.6569183210624928,10.459898316885397,0.49942194207273005,0.3066820554946409
125,22270855,3 ROOM,https://www.propertyguru.com.sg/listing/hdb-for-sale-235-tampines-street-21-22270855,https://sg1-cdn.pgimgs.com/listing/22270855/UPHO.114005596.R400X300/235-Tampines-Street-21-Pasir-Ris-Tampines-Singapore.jpg,235 Tampines Street 21,73.95089140553145,1993,71,388000,1.3554908091986,103.948259265817,18,Tampines,0.5602019893391854,Tampines   Mall    Singapore ,0.5323701824883816,14.041802860546035,1.1536737323295887,0.2648887272616997
126,23470188,3 ROOM,https://www.propertyguru.com.sg/listing/hdb-for-sale-296b-bukit-batok-street-22-23470188,https://sg2-cdn.pgimgs.com/listing/23470188/UPHO.128427979.R400X300/296B-Bukit-Batok-Street-22-Dairy-Farm-Bukit-Panjang-Choa-Chu-Kang-Singapore.jpg,296B Bukit Batok Street 22,67.91218796161243,2017,95,480000,1.34369381417078,103.747356802144,23,Bukit Batok,0.6474558443501444,West   Mall    Singapore ,0.7413434545047581,10.404261674421871,1.0568922412514479,0.577566006383958
127,23419667,3 ROOM,https://www.propertyguru.com.sg/listing/hdb-for-sale-611-clementi-west-street-1-23419667,https://sg1-cdn.pgimgs.com/listing/23419667/UPHO.127770392.R400X300/611-Clementi-West-Street-1-Buona-Vista-West-Coast-Clementi-New-Town-Singapore.jpg,611 Clementi West Street 1,74.0437945354379,1983,61,348000,1.30369739940549,103.769476900942,5,Dover,1.3281208095773358,West   Coast   Plaza    Singapore ,0.4662282353607737,7.010104736572244,0.5795197160291287,0.215615605095126
128,23382081,3 ROOM,https://www.propertyguru.com.sg/listing/hdb-for-sale-807a-chai-chee-road-23382081,https://sg1-cdn.pgimgs.com/listing/23382081/UPHO.127271450.R400X300/807A-Chai-Chee-Road-Bedok-Upper-East-Coast-Singapore.jpg,807A Chai Chee Road,66.98315666254797,2015,93,460000,1.32707387863851,103.923188202853,16,Bedok,0.8497175552093466,Djitsun   Mall   Bedok    Singapore ,0.722253549814699,10.375903563814932,0.5657945657578823,0.2888622183434498
129,23459082,3 ROOM,https://www.propertyguru.com.sg/listing/hdb-for-sale-64-marine-drive-23459082,https://sg1-cdn.pgimgs.com/listing/23459082/UPHO.128279090.R400X300/64-Marine-Drive-East-Coast-Marine-Parade-Singapore.jpg,64 Marine Drive,68.00509109151888,1975,53,408000,1.3021128018146,103.909481434662,15,Eunos,2.0998096594210613,Parkway   Parade    Singapore ,0.4750741482658108,8.560553198698184,0.34990306182644887,0.2702727762533037
130,23079616,3 ROOM,https://www.propertyguru.com.sg/listing/hdb-for-sale-57-havelock-road-23079616,https://sg1-cdn.pgimgs.com/listing/23079616/UPHO.123205440.R400X300/57-Havelock-Road-Alexandra-Commonwealth-Singapore.jpg,57 Havelock Road,69.02702552048979,2011,89,550000,1.29013858517146,103.828453293371,3,Tiong Bahru,0.4318441971223001,Tiong   Bahru   Plaza    Singapore ,0.43502592367428766,1.7024207148679742,0.18584219691009282,0.18811916770497497
131,23469428,3 ROOM,https://www.propertyguru.com.sg/listing/hdb-for-sale-780a-woodlands-crescent-23469428,https://sg2-cdn.pgimgs.com/listing/23469428/UPHO.128417339.R400X300/780A-Woodlands-Crescent-Admiralty-Woodlands-Singapore.jpg,780A Woodlands Crescent,66.98315666254797,2013,91,365000,1.44867890682994,103.80077081866,25,Woodlands,2.059325783317738,Woodlands   Mart    Singapore ,0.4446025665661562,16.37280516795595,2.7010459290207995,0.049192264301624065
132,23415738,3 ROOM,https://www.propertyguru.com.sg/listing/hdb-for-sale-499b-tampines-avenue-9-23415738,https://sg1-cdn.pgimgs.com/listing/23415738/UPHO.127718132.R400X300/499B-Tampines-Avenue-9-Pasir-Ris-Tampines-Singapore.jpg,499B Tampines Avenue 9,66.98315666254797,2012,90,395000,1.35887020526725,103.956331658876,18,Tampines East,0.3003290176661681,Loyang   Point    Singapore ,1.24722271072444,15.014552162600753,1.9546598499229064,0.39127426128747156
133,23469745,3 ROOM,https://www.propertyguru.com.sg/listing/hdb-for-sale-142-potong-pasir-avenue-3-23469745,https://sg2-cdn.pgimgs.com/listing/23469745/UPHO.128421363.R400X300/142-Potong-Pasir-Avenue-3-Macpherson-Potong-Pasir-Singapore.jpg,142 Potong Pasir Avenue 3,65.03219093451258,1984,62,428000,1.333204066999,103.866992603867,13,Potong Pasir,0.2889849334538984,The   Poiz    Singapore ,0.2425032748542081,4.958638552086548,1.1295401398143226,0.06582948086508192
134,23007876,3 ROOM,https://www.propertyguru.com.sg/listing/hdb-for-sale-808c-chai-chee-road-23007876,https://sg1-cdn.pgimgs.com/listing/23007876/UPHO.122221366.R400X300/808C-Chai-Chee-Road-Bedok-Upper-East-Coast-Singapore.jpg,808C Chai Chee Road,68.00509109151888,2015,93,530000,1.32789302968467,103.923874941007,16,Bedok,0.8236765260593804,Djitsun   Mall   Bedok    Singapore ,0.6689875587130379,10.47193959124172,0.4543480587947053,0.35265695493081894
135,23446355,3 ROOM,https://www.propertyguru.com.sg/listing/hdb-for-sale-118-pending-road-23446355,https://sg1-cdn.pgimgs.com/listing/23446355/UPHO.128108300.R400X300/118-Pending-Road-Dairy-Farm-Bukit-Panjang-Choa-Chu-Kang-Singapore.jpg,118 Pending Road,73.02186010646699,1986,64,369999,1.37680420349221,103.768463736662,23,Petir,0.24128131689167404,Hillion   Mall    Singapore ,0.5452826229206279,10.70720087539868,4.221809219072672,0.4562150129799691
136,23469451,3 ROOM,https://www.propertyguru.com.sg/listing/hdb-for-sale-475d-upper-serangoon-crescent-23469451,https://sg1-cdn.pgimgs.com/listing/23469451/UPHO.128417156.R400X300/475D-Upper-Serangoon-Crescent-Hougang-Punggol-Sengkang-Singapore.jpg,475D Upper Serangoon Crescent,66.98315666254797,2014,92,500000,1.37518254401409,103.900405982824,19,Hougang,0.9707180266897061,The   Midtown    Singapore ,0.7859164734713713,10.863737409404672,2.396144988139397,0.44478412252053734
137,22762013,3 ROOM,https://www.propertyguru.com.sg/listing/hdb-for-sale-15-farrer-park-road-22762013,https://sg2-cdn.pgimgs.com/listing/22762013/UPHO.119256109.R400X300/15-Farrer-Park-Road-Farrer-Park-Serangoon-Rd-Singapore.jpg,15 Farrer Park Road,61.96638764759985,2002,80,450000,1.31104346812008,103.851660614786,8,Farrer Park,0.40065045567487617,Serangoon   Plaza    Singapore ,0.3886446388888866,2.2342942240705885,0.5535083263121989,0.4570775952328503
138,23468657,3 ROOM,https://www.propertyguru.com.sg/listing/hdb-for-sale-418a-fernvale-link-23468657,https://sg1-cdn.pgimgs.com/listing/23468657/UPHO.128406516.R400X300/418A-Fernvale-Link-Seletar-Yio-Chu-Kang-Singapore.jpg,418A Fernvale Link,66.98315666254797,2017,95,400000,1.39100745746343,103.879606736157,28,Layar,0.13423144009615762,The   Seletar   Mall    Singapore ,0.38579570757264314,10.912052304630045,3.312111868910525,0.3850774173919978
139,22368985,3 ROOM,https://www.propertyguru.com.sg/listing/hdb-for-sale-311b-clementi-avenue-4-22368985,https://sg1-cdn.pgimgs.com/listing/22368985/UPHO.115054818.R400X300/311B-Clementi-Avenue-4-Buona-Vista-West-Coast-Clementi-New-Town-Singapore.jpg,311B Clementi Avenue 4,60.015421919564474,2015,93,529888,1.31944669077179,103.765649446368,5,Clementi,0.5039576002816766,The   Clementi   Mall    Singapore ,0.45530491972398157,7.608280643112648,0.7211174612130036,0.4275007734418412
140,23444107,3 ROOM,https://www.propertyguru.com.sg/listing/hdb-for-sale-520c-tampines-central-8-23444107,https://sg1-cdn.pgimgs.com/listing/23444107/UPHO.128077230.R400X300/520C-Tampines-Central-8-Pasir-Ris-Tampines-Singapore.jpg,520C Tampines Central 8,61.96638764759985,2014,92,518000,1.35674170789189,103.939692399456,18,Tampines,0.47649002125411827,Tampines 1    Singapore ,0.4090388194569561,13.234752834890973,1.334282889457695,0.6039801617423883
141,23430391,3 ROOM,https://www.propertyguru.com.sg/listing/hdb-for-sale-535-ang-mo-kio-avenue-5-23430391,https://sg2-cdn.pgimgs.com/listing/23430391/UPHO.127900749.R400X300/535-Ang-Mo-Kio-Avenue-5-Ang-Mo-Kio-Bishan-Thomson-Singapore.jpg,535 Ang Mo Kio Avenue 5,81.94056057748585,1979,57,420000,1.37458255258876,103.853049125302,20,Ang Mo Kio,0.636282725887797,Jubilee   Square    Singapore ,0.6634837590117961,8.077527250233357,0.23886864117678186,0.23481005946811853
142,23418775,3 ROOM,https://www.propertyguru.com.sg/listing/hdb-for-sale-7-boon-keng-road-23418775,https://sg2-cdn.pgimgs.com/listing/23418775/UPHO.127780553.R400X300/7-Boon-Keng-Road-Balestier-Toa-Payoh-Singapore.jpg,7 Boon Keng Road,69.95605681955425,2011,89,638000,1.31678922529742,103.861781918434,12,Boon Keng,0.36741210173200495,Aperia    Singapore ,0.8249148106383061,3.5108801880416083,0.3031013837695368,0.5996321781946606
143,23343600,3 ROOM,https://www.propertyguru.com.sg/listing/hdb-for-sale-1-changi-village-road-23343600,https://sg2-cdn.pgimgs.com/listing/23343600/UPHO.126799031.R400X300/1-Changi-Village-Road-Changi-Airport-Changi-Village-Singapore.jpg,1 Changi Village Road,65.96122223357705,1975,53,330000,1.3885465622902,103.987804503483,17,Changi Airport,3.4394960407782125,Changi   Airport    Singapore ,2.9434026011977004,19.60804706714772,0.1370489868022515,3.3258185817276695
144,23417852,3 ROOM,https://www.propertyguru.com.sg/listing/hdb-for-sale-174b-hougang-avenue-1-23417852,https://sg1-cdn.pgimgs.com/listing/23417852/UPHO.127746668.R400X300/174B-Hougang-Avenue-1-Hougang-Punggol-Sengkang-Singapore.jpg,174B Hougang Avenue,65.96122223357705,1982,60,378888,1.34955516910382,103.889276891994,19,Kovan,1.2696518307812046,Heartland   Mall    Singapore ,1.2009657431711498,8.028659169042719,0.4858331741373312,0.48692123910921
145,23466364,3 ROOM,https://www.propertyguru.com.sg/listing/hdb-for-sale-212-marsiling-crescent-23466364,https://sg2-cdn.pgimgs.com/listing/23466364/UPHO.128372477.R400X300/212-Marsiling-Crescent-Admiralty-Woodlands-Singapore.jpg,212 Marsiling Crescent,73.95089140553145,1983,61,280000,1.44621408696805,103.773079709744,25,Marsiling,1.5208153807991276,Marsiling   Mall    Singapore ,1.5949917092946262,17.046622047454807,0.5248991643514731,1.526598436097623
146,23390919,3 ROOM,https://www.propertyguru.com.sg/listing/hdb-for-sale-108-jalan-bukit-merah-23390919,https://sg1-cdn.pgimgs.com/listing/23390919/UPHO.127394092.R400X300/108-Jalan-Bukit-Merah-Alexandra-Commonwealth-Singapore.jpg,108 Jalan Bukit Merah,74.0,2015,93,370000,1.27922008833833,103.825441382185,3,Tiong Bahru,0.8328047289951389,Tiong   Bahru   Plaza    Singapore ,0.8248206262637864,2.96182771020335,0.10796500288847886,0.38003988298455427
147,22943266,3 ROOM,https://www.propertyguru.com.sg/listing/hdb-for-sale-311b-clementi-avenue-4-22943266,https://sg2-cdn.pgimgs.com/listing/22943266/UPHO.121222913.R400X300/311B-Clementi-Avenue-4-Buona-Vista-West-Coast-Clementi-New-Town-Singapore.jpg,311B Clementi Avenue 4,59.92251878965803,2016,94,530000,1.31944669077179,103.765649446368,5,Clementi,0.5039576002816766,The   Clementi   Mall    Singapore ,0.45530491972398157,7.608280643112648,0.7211174612130036,0.4275007734418412
148,23422878,3 ROOM,https://www.propertyguru.com.sg/listing/hdb-for-sale-208a-clementi-avenue-6-23422878,https://sg1-cdn.pgimgs.com/listing/23422878/UPHO.128029000.R400X300/208A-Clementi-Avenue-6-Buona-Vista-West-Coast-Clementi-New-Town-Singapore.jpg,208A Clementi Avenue 6,64.93928780460614,2016,94,610000,1.32200240528557,103.762448319374,5,Clementi,0.8501359240264934,The   Clementi   Mall    Singapore ,0.7608822779447283,8.018967156474632,1.0206662543017486,0.5526114740903317
149,23468590,3 ROOM,https://www.propertyguru.com.sg/listing/hdb-for-sale-116a-jalan-tenteram-23468590,https://sg2-cdn.pgimgs.com/listing/23468590/UPHO.128405829.R400X300/116A-Jalan-Tenteram-Balestier-Toa-Payoh-Singapore.jpg,116A Jalan Tenteram,66.98315666254797,2015,93,519999,1.3270531250321,103.860558381575,12,Boon Keng,0.7836935484920834,The   Poiz    Singapore ,0.9701009244755225,3.97250186385261,0.7562821738638309,0.4059704071839725
150,23468503,3 ROOM,https://www.propertyguru.com.sg/listing/hdb-for-sale-311a-clementi-avenue-4-23468503,https://sg2-cdn.pgimgs.com/listing/23468503/UPHO.128404759.R400X300/311A-Clementi-Avenue-4-Buona-Vista-West-Coast-Clementi-New-Town-Singapore.jpg,311A Clementi Avenue 4,60.015421919564474,2014,92,560000,1.31911656776897,103.765492195959,5,Clementi,0.46638467684706947,The   Clementi   Mall    Singapore ,0.41535015217492266,7.617659749302585,0.6820146608416797,0.4283619641789303
151,23468388,3 ROOM,https://www.propertyguru.com.sg/listing/hdb-for-sale-623a-punggol-central-23468388,https://sg2-cdn.pgimgs.com/listing/23468388/UPHO.128402727.R400X300/623A-Punggol-Central-Hougang-Punggol-Sengkang-Singapore.jpg,623A Punggol Central,68.93412239058334,2012,90,370000,1.39988482536912,103.91189638413,19,Oasis,0.28473191698708156,Oasis   Terraces    Singapore ,0.34179794042661454,13.762538454191859,5.368129482378292,0.1673413569670378
152,23468240,3 ROOM,https://www.propertyguru.com.sg/listing/hdb-for-sale-635-veerasamy-road-23468240,https://sg2-cdn.pgimgs.com/listing/23468240/UPHO.128400301.R400X300/635-Veerasamy-Road-Farrer-Park-Serangoon-Rd-Singapore.jpg,635 Veerasamy Road,71.99992567749608,1984,62,480000,1.30658850181779,103.855218716278,8,Jalan Besar,0.11802859267945795,Mustafa   Shopping   Centre    Singapore ,0.3826480241988258,2.5297582604757576,0.20378362878598213,0.2546811334677929
153,23442804,3 ROOM,https://www.propertyguru.com.sg/listing/hdb-for-sale-345-bukit-batok-street-34-23442804,https://sg2-cdn.pgimgs.com/listing/23442804/UPHO.128399717.R400X300/345-Bukit-Batok-Street-34-Dairy-Farm-Bukit-Panjang-Choa-Chu-Kang-Singapore.jpg,345 Bukit Batok Street 34,72.92895697656054,1985,63,348000,1.36284881503816,103.750843242288,23,Bukit Gombak,0.4381078722752162,West   Mall    Singapore ,1.4294441372673956,11.134310863455617,2.589800074029055,0.16843260370860483
154,23457137,3 ROOM,https://www.propertyguru.com.sg/listing/hdb-for-sale-101-tampines-street-11-23457137,https://sg1-cdn.pgimgs.com/listing/23457137/UPHO.128252310.R400X300/101-Tampines-Street-11-Pasir-Ris-Tampines-Singapore.jpg,101 Tampines Street 11,74.97282583450237,1981,59,368000,1.34740034584156,103.945294915705,18,Tampines West,0.8094414244892888,Century   Square    Singapore ,0.5696694708056512,13.397365436427537,0.1959033203628286,0.23158954333642218
155,23437227,3 ROOM,https://www.propertyguru.com.sg/listing/hdb-for-sale-236-tampines-street-21-23437227,https://sg2-cdn.pgimgs.com/listing/23437227/UPHO.127985983.R400X300/236-Tampines-Street-21-Pasir-Ris-Tampines-Singapore.jpg,236 Tampines Street 21,73.02186010646699,1984,62,370000,1.35590516879668,103.947447486706,18,Tampines,0.485372833822001,Tampines   Mall    Singapore ,0.4948684373045047,13.977798456556469,1.1692007340360853,0.17066884884713648
156,23441971,3 ROOM,https://www.propertyguru.com.sg/listing/hdb-for-sale-80c-telok-blangah-street-31-23441971,https://sg2-cdn.pgimgs.com/listing/23441971/UPHO.128051311.R400X300/80C-Telok-Blangah-Street-31-Harbourfront-Telok-Blangah-Singapore.jpg,80C Telok Blangah Street 31,68.00509109151888,2011,89,608000,1.27349435644809,103.807229362471,4,Telok Blangah,0.4225323914250646,Alexandra   Retail   Centre    Singapore ,0.651966699885411,4.483411256076396,0.045918548203262424,0.1899968323756461
157,23213804,3 ROOM,https://www.propertyguru.com.sg/listing/hdb-for-sale-641-rowell-road-23213804,https://sg1-cdn.pgimgs.com/listing/23213804/UPHO.125462052.R400X300/641-Rowell-Road-Farrer-Park-Serangoon-Rd-Singapore.jpg,641 Rowell Road,73.95089140553145,1982,60,445000,1.30815916680635,103.855147802763,8,Jalan Besar,0.2918660143647287,Mustafa   Shopping   Centre    Singapore ,0.21112187167215796,2.54089244371329,0.21370907046904175,0.07993851903822184
158,23465240,3 ROOM,https://www.propertyguru.com.sg/listing/hdb-for-sale-115-teck-whye-lane-23465240,https://sg1-cdn.pgimgs.com/listing/23465240/UPHO.128357552.R400X300/115-Teck-Whye-Lane-Dairy-Farm-Bukit-Panjang-Choa-Chu-Kang-Singapore.jpg,115 Teck Whye Lane,73.02186010646699,1987,65,330000,1.37893677955462,103.751182368998,23,Keat Hong,0.23903251892820562,Teck   Whye   Shopping   Centre    Singapore ,0.18861797825770252,12.22882849735782,4.208169717948534,0.22327658948804005
159,22523862,3 ROOM,https://www.propertyguru.com.sg/listing/hdb-for-sale-523b-tampines-central-7-22523862,https://sg1-cdn.pgimgs.com/listing/22523862/UPHO.116741800.R400X300/523B-Tampines-Central-7-Pasir-Ris-Tampines-Singapore.jpg,523B Tampines Central 7,66.98315666254797,2014,92,449000,1.35986668073237,103.938372890966,18,Tampines,0.8145840646503333,Tampines 1    Singapore ,0.7353432886352639,13.259416880172228,1.7113917979940234,0.6630475568530874
160,23467325,3 ROOM,https://www.propertyguru.com.sg/listing/hdb-for-sale-802a-keat-hong-close-23467325,https://sg2-cdn.pgimgs.com/listing/23467325/UPHO.128385619.R400X300/802A-Keat-Hong-Close-Dairy-Farm-Bukit-Panjang-Choa-Chu-Kang-Singapore.jpg,802A Keat Hong Close,66.98315666254797,2016,94,358000,1.37451584184375,103.74347432386,23,South View,0.6738567934880876,Keat   Hong   Shopping   Centre    Singapore ,0.34044850203189675,12.56671274278191,3.50322433000527,0.3404475463600522
161,22096890,3 ROOM,https://www.propertyguru.com.sg/listing/hdb-for-sale-53-stirling-road-22096890,https://sg2-cdn.pgimgs.com/listing/22096890/UPHO.111987743.R400X300/53-Stirling-Road-Alexandra-Commonwealth-Singapore.jpg,53 Stirling Road,78.0386291214151,1959,37,810000,1.29664619926236,103.803619402049,3,Queenstown,0.32175827548395686,Anchorpoint    Singapore ,0.9063450870059128,3.341771227612456,0.3874232463954981,0.6400989319862643
162,23121925,3 ROOM,https://www.propertyguru.com.sg/listing/hdb-for-sale-73-eng-watt-street-23121925,https://sg2-cdn.pgimgs.com/listing/23121925/UPHO.123786611.R400X300/73-Eng-Watt-Street-Alexandra-Commonwealth-Singapore.jpg,73 Eng Watt Street,111.48375588773587,1937,15,1388000,1.28337036699164,103.832456524921,3,Tiong Bahru,0.7066134300381871,Tiong   Bahru   Plaza    Singapore ,0.6370610249081486,2.3937459373591072,0.14634253933244423,0.2197795131020094
163,23411316,3 ROOM,https://www.propertyguru.com.sg/listing/hdb-for-sale-212-tampines-street-23-23411316,https://sg2-cdn.pgimgs.com/listing/23411316/UPHO.127662977.R400X300/212-Tampines-Street-23-Pasir-Ris-Tampines-Singapore.jpg,212 Tampines Street 23,72.92895697656054,1984,62,399000,1.35443416250723,103.954404790753,18,Tampines East,0.23990663717738503,Tampines   Mall    Singapore ,1.1306095325853507,14.625648361302877,1.4544341943508108,0.18948135764153545
164,23419700,3 ROOM,https://www.propertyguru.com.sg/listing/hdb-for-sale-108-tampines-street-11-23419700,https://sg2-cdn.pgimgs.com/listing/23419700/UPHO.127770771.R400X300/108-Tampines-Street-11-Pasir-Ris-Tampines-Singapore.jpg,108 Tampines Street 11,72.92895697656054,1983,61,375000,1.34786646438204,103.94856161626,18,Simei,0.7399359186149611,Tampines   Mall    Singapore ,0.7076906694748861,13.755676635531453,0.49854127144951554,0.05346763010348128
165,23439192,3 ROOM,https://www.propertyguru.com.sg/listing/hdb-for-sale-15-farrer-park-road-23439192,https://sg1-cdn.pgimgs.com/listing/23439192/UPHO.128015042.R400X300/15-Farrer-Park-Road-Farrer-Park-Serangoon-Rd-Singapore.jpg,15 Farrer Park Road,61.96638764759985,2002,80,500000,1.31104346812008,103.851660614786,8,Farrer Park,0.40065045567487617,Serangoon   Plaza    Singapore ,0.3886446388888866,2.2342942240705885,0.5535083263121989,0.4570775952328503
166,23395504,3 ROOM,https://www.propertyguru.com.sg/listing/hdb-for-sale-105-potong-pasir-avenue-1-23395504,https://sg1-cdn.pgimgs.com/listing/23395504/UPHO.127757200.R400X300/105-Potong-Pasir-Avenue-1-Macpherson-Potong-Pasir-Singapore.jpg,105 Potong Pasir Avenue 1,73.95089140553145,1984,62,380000,1.33442373227682,103.868696835165,13,Potong Pasir,0.3456852303617593,The   Poiz    Singapore ,0.34654277792604293,5.191138789342014,1.299372669272756,0.2628994452862658
167,23455525,3 ROOM,https://www.propertyguru.com.sg/listing/hdb-for-sale-235-tampines-street-21-23455525,https://sg1-cdn.pgimgs.com/listing/23455525/UPHO.128228786.R400X300/235-Tampines-Street-21-Pasir-Ris-Tampines-Singapore.jpg,235 Tampines Street 21,73.857988275625,1993,71,378000,1.3554908091986,103.948259265817,18,Tampines,0.5602019893391854,Tampines   Mall    Singapore ,0.5323701824883816,14.041802860546035,1.1536737323295887,0.2648887272616997
168,23425865,3 ROOM,https://www.propertyguru.com.sg/listing/hdb-for-sale-665-hougang-avenue-4-23425865,https://sg1-cdn.pgimgs.com/listing/23425865/UPHO.127843866.R400X300/665-Hougang-Avenue-4-Hougang-Punggol-Sengkang-Singapore.jpg,665 Hougang Avenue 4,74.0437945354379,1986,64,385000,1.37403985056586,103.884391131798,19,Hougang,0.9512811748932521,Hougang 1    Singapore ,0.5808515178153424,9.610015586610059,1.6718949205857705,0.15918646912111895
169,23307049,3 ROOM,https://www.propertyguru.com.sg/listing/hdb-for-sale-138b-lorong-1a-toa-payoh-23307049,https://sg2-cdn.pgimgs.com/listing/23307049/UPHO.126478831.R400X300/138B-Lorong-1A-Toa-Payoh-Balestier-Toa-Payoh-Singapore.jpg,138B Lorong 1A Toa Payoh,69.95605681955425,2012,90,650000,1.33626408939966,103.845626191384,12,Toa Payoh,0.47393375691189826,HDB   Hub   Singapore ,0.49205477496016475,3.779647277823707,0.22635081329764462,0.42334908984650943
170,21999506,3 ROOM,https://www.propertyguru.com.sg/listing/hdb-for-sale-78-guan-chuan-street-21999506,https://sg2-cdn.pgimgs.com/listing/21999506/UPHO.110825879.R400X300/78-Guan-Chuan-Street-Alexandra-Commonwealth-Singapore.jpg,78 Guan Chuan Street,92.996033036353,1937,15,988888,1.28332611385654,103.831014548462,3,Tiong Bahru,0.576600245018576,Tiong   Bahru   Plaza    Singapore ,0.5098691808449658,2.404525317212026,0.21755818236327215,0.25207421682185593
171,23171969,3 ROOM,https://www.propertyguru.com.sg/listing/hdb-for-sale-50-dorset-road-23171969,https://sg2-cdn.pgimgs.com/listing/23171969/UPHO.124494279.R400X300/50-Dorset-Road-Farrer-Park-Serangoon-Rd-Singapore.jpg,50 Dorset Road,67.91218796161243,1978,56,370000,1.31272456684823,103.850376065967,8,Farrer Park,0.4998202250875059,KKH  Mall    Singapore ,0.44405128181942505,2.1668787210819906,0.38237006188833417,0.30583017274247287
172,23433168,3 ROOM,https://www.propertyguru.com.sg/listing/hdb-for-sale-227-tampines-street-23-23433168,https://sg2-cdn.pgimgs.com/listing/23433168/UPHO.127934503.R400X300/227-Tampines-Street-23-Pasir-Ris-Tampines-Singapore.jpg,227 Tampines Street 23,70.97799124852517,1984,62,378000,1.35470798068717,103.955002715196,18,Tampines East,0.18558701470020644,Tampines   Mall    Singapore ,1.201489482980904,14.698689156797991,1.5245776979356631,0.2615718813107662
173,22486530,3 ROOM,https://www.propertyguru.com.sg/listing/hdb-for-sale-50-commonwealth-drive-22486530,https://sg2-cdn.pgimgs.com/listing/22486530/UPHO.116342753.R400X300/50-Commonwealth-Drive-Alexandra-Commonwealth-Singapore.jpg,50 Commonwealth Drive,68.00509109151888,2013,91,525000,1.30112909158394,103.797123032464,3,Commonwealth,0.1977348707179988,IMM Singapore,0.39177963159712875,3.9577659654882926,0.09179727658745115,0.14270673236148104
174,23387964,3 ROOM,https://www.propertyguru.com.sg/listing/hdb-for-sale-807c-chai-chee-road-23387964,https://sg2-cdn.pgimgs.com/listing/23387964/UPHO.127351065.R400X300/807C-Chai-Chee-Road-Bedok-Upper-East-Coast-Singapore.jpg,807C Chai Chee Road,68.00509109151888,2015,93,475000,1.3279979407231,103.92324860169,16,Bedok,0.8896101141755683,Djitsun   Mall   Bedok    Singapore ,0.7389167651245424,10.407306365553842,0.4690173904953124,0.38097862437413954
175,23466464,3 ROOM,https://www.propertyguru.com.sg/listing/hdb-for-sale-256c-sumang-walk-23466464,https://sg2-cdn.pgimgs.com/listing/23466464/UPHO.128373861.R400X300/256C-Sumang-Walk-Hougang-Punggol-Sengkang-Singapore.jpg,256C Sumang Walk,67.91218796161243,2015,93,420000,1.40540203681825,103.895910481206,19,Soo Teck,0.15306266941027322,Waterway   Point    Singapore ,0.6872770410725872,13.211444276342869,5.26395905526798,0.10154517311656387
176,23466435,3 ROOM,https://www.propertyguru.com.sg/listing/hdb-for-sale-311a-clementi-avenue-4-23466435,https://sg1-cdn.pgimgs.com/listing/23466435/UPHO.128373496.R400X300/311A-Clementi-Avenue-4-Buona-Vista-West-Coast-Clementi-New-Town-Singapore.jpg,311A Clementi Avenue 4,59.92251878965803,2015,93,568888,1.31911656776897,103.765492195959,5,Clementi,0.46638467684706947,The   Clementi   Mall    Singapore ,0.41535015217492266,7.617659749302585,0.6820146608416797,0.4283619641789303
177,23326673,3 ROOM,https://www.propertyguru.com.sg/listing/hdb-for-sale-107-towner-road-23326673,https://sg1-cdn.pgimgs.com/listing/23326673/UPHO.126599954.R400X300/107-Towner-Road-Balestier-Toa-Payoh-Singapore.jpg,107 Towner Road,73.95089140553145,1982,60,478000,1.31979508625985,103.860435814245,12,Boon Keng,0.13946851518377978,City   Square   Mall    Singapore ,1.04477784115301,3.517230505753697,0.29453699017017804,0.2341774829019119
178,23451982,3 ROOM,https://www.propertyguru.com.sg/listing/hdb-for-sale-665c-punggol-drive-23451982,https://sg1-cdn.pgimgs.com/listing/23451982/UPHO.128182606.R400X300/665C-Punggol-Drive-Hougang-Punggol-Sengkang-Singapore.jpg,665C Punggol Drive,66.98315666254797,2015,93,430000,1.4014916460804,103.914459128885,19,Oasis,0.21177671098534076,Oasis   Terraces    Singapore ,0.18332360098565076,14.08268381234249,5.673341822031859,0.28710064275645314
179,20747467,3 ROOM,https://www.propertyguru.com.sg/listing/hdb-for-sale-138b-lorong-1a-toa-payoh-20747467,https://sg2-cdn.pgimgs.com/listing/20747467/UPHO.90814657.R400X300/138B-Lorong-1A-Toa-Payoh-Balestier-Toa-Payoh-Singapore.jpg,138B Lorong 1A Toa Payoh,69.95605681955425,2012,90,650000,1.33626408939966,103.845626191384,12,Toa Payoh,0.47393375691189826,HDB   Hub   Singapore ,0.49205477496016475,3.779647277823707,0.22635081329764462,0.42334908984650943
180,23346773,3 ROOM,https://www.propertyguru.com.sg/listing/hdb-for-sale-698b-jurong-west-central-3-23346773,https://sg2-cdn.pgimgs.com/listing/23346773/UPHO.126837215.R400X300/698B-Jurong-West-Central-3-Boon-Lay-Jurong-Tuas-Singapore.jpg,698B Jurong West Central 3,67.91218796161243,2016,94,425000,1.3406512946922,103.707506154373,22,Boon Lay,0.29372851571446423,Jurong   Point    Singapore ,0.20477691778988547,14.455244332387629,0.835921819873608,0.16160528054832213
181,23465810,3 ROOM,https://www.propertyguru.com.sg/listing/hdb-for-sale-675c-yishun-avenue-4-23465810,https://sg2-cdn.pgimgs.com/listing/23465810/UPHO.128364709.R400X300/675C-Yishun-Avenue-4-Sembawang-Yishun-Singapore.jpg,675C Yishun Avenue 4,67.91218796161243,99,-1823,365000,1.41942653983796,103.842181861126,27,Khatib,1.045238927419372,Wisteria   Mall    Singapore ,0.19034437995810122,12.780206793307958,2.0580844410816588,0.7500363067943053
182,23409212,3 ROOM,https://www.propertyguru.com.sg/listing/hdb-for-sale-139a-lorong-1a-toa-payoh-23409212,https://sg1-cdn.pgimgs.com/listing/23409212/UPHO.127635956.R400X300/139A-Lorong-1A-Toa-Payoh-Balestier-Toa-Payoh-Singapore.jpg,139A Lorong 1A Toa Payoh,70.0489599494607,2012,90,659000,1.33627775831234,103.844044881122,12,Caldecott,0.5142378999030708,HDB   Hub   Singapore ,0.5787786765501965,3.7168817748329066,0.21577930200738307,0.5192524010893227
183,23393110,3 ROOM,https://www.propertyguru.com.sg/listing/hdb-for-sale-537-bukit-batok-street-52-23393110,https://sg2-cdn.pgimgs.com/listing/23393110/UPHO.127423205.R400X300/537-Bukit-Batok-Street-52-Dairy-Farm-Bukit-Panjang-Choa-Chu-Kang-Singapore.jpg,537 Bukit Batok Street 52,72.92895697656054,1985,63,338000,1.35511516448647,103.750877888291,23,Bukit Gombak,0.4502754478398988,West   Mall    Singapore ,0.5878403786160434,10.656451842035096,1.9392000361289152,0.3841611039153698
184,23005653,3 ROOM,https://www.propertyguru.com.sg/listing/hdb-for-sale-475d-upper-serangoon-crescent-23005653,https://sg2-cdn.pgimgs.com/listing/23005653/UPHO.122402611.R400X300/475D-Upper-Serangoon-Crescent-475D-Upper-Serangoon-Crescent-Singapore.jpg,475D Upper Serangoon Crescent,67.35476918217375,2014,92,460000,1.37518254401409,103.900405982824,19,Hougang,0.9707180266897061,The   Midtown    Singapore ,0.7859164734713713,10.863737409404672,2.396144988139397,0.44478412252053734
185,23454178,3 ROOM,https://www.propertyguru.com.sg/listing/hdb-for-sale-90a-telok-blangah-street-31-23454178,https://sg1-cdn.pgimgs.com/listing/23454178/UPHO.128211272.R400X300/90A-Telok-Blangah-Street-31-Harbourfront-Telok-Blangah-Singapore.jpg,90A Telok Blangah Street 31,67.91218796161243,2017,95,680000,1.27773820035208,103.807097180814,4,Labrador Park,0.7979486929557358,Alexandra   Retail   Centre    Singapore ,0.7695994558498733,4.136531212351343,0.4551940978893889,0.5054830610096134
186,23465763,3 ROOM,https://www.propertyguru.com.sg/listing/hdb-for-sale-802a-keat-hong-close-23465763,https://sg1-cdn.pgimgs.com/listing/23465763/UPHO.128365416.R400X300/802A-Keat-Hong-Close-Dairy-Farm-Bukit-Panjang-Choa-Chu-Kang-Singapore.jpg,802A Keat Hong Close,66.89025353264152,2016,94,400000,1.37451584184375,103.74347432386,23,South View,0.6738567934880876,Keat   Hong   Shopping   Centre    Singapore ,0.34044850203189675,12.56671274278191,3.50322433000527,0.3404475463600522
187,23348729,3 ROOM,https://www.propertyguru.com.sg/listing/hdb-for-sale-308c-punggol-walk-23348729,https://sg2-cdn.pgimgs.com/listing/23348729/UPHO.126860695.R400X300/308C-Punggol-Walk-Hougang-Punggol-Sengkang-Singapore.jpg,308C Punggol Walk,66.98315666254797,2015,93,450000,1.40800694944027,103.899074357998,19,Sumang,0.07576374761942194,Waterway   Point    Singapore ,0.362855670987637,13.644790130292993,5.627582869161783,4.6692620313420255e-06
188,23418631,3 ROOM,https://www.propertyguru.com.sg/listing/hdb-for-sale-32-eunos-crescent-23418631,https://sg2-cdn.pgimgs.com/listing/23418631/UPHO.127757307.R400X300/32-Eunos-Crescent-Eunos-Geylang-Paya-Lebar-Singapore.jpg,32 Eunos Crescent,59.92251878965803,2005,83,468000,1.32029253511762,103.901355995305,14,Eunos,0.1785918647493272,KINEX Singapore,0.985893019003655,7.840795393097491,0.33078351349520363,0.23462935040609884
189,23465015,3 ROOM,https://www.propertyguru.com.sg/listing/hdb-for-sale-308b-ang-mo-kio-avenue-1-23465015,https://sg1-cdn.pgimgs.com/listing/23465015/UPHO.128354410.R400X300/308B-Ang-Mo-Kio-Avenue-1-Ang-Mo-Kio-Bishan-Thomson-Singapore.jpg,308B Ang Mo Kio Avenue 1,69.95605681955425,2011,89,519000,1.3652661423815,103.844538059044,20,Ang Mo Kio,0.7714575065745607,AMKHub    Singapore ,0.6222645626074642,6.844218575435977,0.42294556329370875,0.33497195035242316
190,23427570,3 ROOM,https://www.propertyguru.com.sg/listing/hdb-for-sale-886a-woodlands-drive-50-23427570,https://sg2-cdn.pgimgs.com/listing/23427570/UPHO.128114837.R400X300/886A-Woodlands-Drive-50-Admiralty-Woodlands-Singapore.jpg,886A Woodlands Drive 50,66.98315666254797,2013,91,399000,1.43829151566127,103.794612853493,25,Woodlands,0.9237871935558101,888 Plaza Singapore,0.15205970760157225,15.419844907279625,2.0437668816336143,0.15205970760157225
191,23464593,3 ROOM,https://www.propertyguru.com.sg/listing/hdb-for-sale-113c-mcnair-road-23464593,https://sg1-cdn.pgimgs.com/listing/23464593/UPHO.128349286.R400X300/113C-Mcnair-Road-Balestier-Toa-Payoh-Singapore.jpg,113C Mcnair Road,68.00509109151888,2016,94,698000,1.32088235344697,103.860331710143,12,Boon Keng,0.17141385715796184,City   Square   Mall    Singapore ,1.152287044956072,3.565723441054714,0.3517041761403552,0.13356586886050176
192,23439673,3 ROOM,https://www.propertyguru.com.sg/listing/hdb-for-sale-261-tampines-street-21-23439673,https://sg2-cdn.pgimgs.com/listing/23439673/UPHO.128021359.R400X300/261-Tampines-Street-21-Pasir-Ris-Tampines-Singapore.jpg,261 Tampines Street 21,73.95089140553145,1983,61,380000,1.3543034927433,103.950965475574,18,Tampines East,0.5482996071357353,Tampines   Mall    Singapore ,0.7533396105096765,14.266592630427708,1.182981459346458,0.2483266698571719
193,23464708,3 ROOM,https://www.propertyguru.com.sg/listing/hdb-for-sale-110-teck-whye-lane-23464708,https://sg1-cdn.pgimgs.com/listing/23464708/UPHO.128350898.R400X300/110-Teck-Whye-Lane-Dairy-Farm-Bukit-Panjang-Choa-Chu-Kang-Singapore.jpg,110 Teck Whye Lane,72.92895697656054,1987,65,308000,1.37823695284901,103.752208325828,23,Teck Whye,0.2323826356038365,Teck   Whye   Shopping   Centre    Singapore ,0.2033544252230882,12.092123363086671,4.177655918068577,0.20721482812226083
194,23039187,3 ROOM,https://www.propertyguru.com.sg/listing/hdb-for-sale-5-ghim-moh-road-23039187,https://sg2-cdn.pgimgs.com/listing/23039187/UPHO.124304305.R400X300/5-Ghim-Moh-Road-Tanglin-Holland-Bukit-Timah-Singapore.jpg,5 Ghim Moh Road,65.03219093451258,1975,53,345000,1.31269310627626,103.788308828224,10,Buona Vista,0.6260990330896496,The   Star   Vista    Singapore ,0.6538395078677661,4.991194992850452,0.19839383791682258,0.29149934580216896
195,23464574,3 ROOM,https://www.propertyguru.com.sg/listing/hdb-for-sale-205-tampines-street-21-23464574,https://sg1-cdn.pgimgs.com/listing/23464574/UPHO.128349008.R400X300/205-Tampines-Street-21-Pasir-Ris-Tampines-Singapore.jpg,205 Tampines Street 21,74.97282583450237,1982,60,380000,1.35171755145102,103.951966044566,18,Tampines East,0.6423230454065455,Tampines   Mall    Singapore ,0.8490701319486681,14.261855373952233,1.0523901151484585,0.22430551678377544
196,23377787,3 ROOM,https://www.propertyguru.com.sg/listing/hdb-for-sale-414-eunos-road-5-23377787,https://sg1-cdn.pgimgs.com/listing/23377787/UPHO.127209498.R400X300/414-Eunos-Road-5-Eunos-Geylang-Paya-Lebar-Singapore.jpg,414 Eunos Road 5,73.95089140553145,1984,62,460000,1.31811559287301,103.898220673165,14,Eunos,0.55195814864623,KINEX Singapore,0.5637226045258236,7.449538356608236,0.16029545665465977,0.16029545665465977
197,23440779,3 ROOM,https://www.propertyguru.com.sg/listing/hdb-for-sale-162-bukit-batok-street-11-23440779,https://sg1-cdn.pgimgs.com/listing/23440779/UPHO.128035708.R400X300/162-Bukit-Batok-Street-11-Dairy-Farm-Bukit-Panjang-Choa-Chu-Kang-Singapore.jpg,162 Bukit Batok Street 11,73.95089140553145,1984,62,350000,1.34768075020651,103.741887681534,23,Bukit Batok,0.8706831081069139,West   Mall    Singapore ,0.8575924594410218,11.142352241811317,0.6448242462275503,0.1174180098067234
198,23324961,3 ROOM,https://www.propertyguru.com.sg/listing/hdb-for-sale-293-tampines-street-22-23324961,https://sg1-cdn.pgimgs.com/listing/23324961/UPHO.126580368.R400X300/293-Tampines-Street-22-Pasir-Ris-Tampines-Singapore.jpg,293 Tampines Street 22,72.55734445693476,1983,61,359999,1.35039108059224,103.954901592901,18,Tampines East,0.6611915156508488,Eastpoint   Mall    Singapore ,0.8913439795120928,14.51409367513933,1.2555618753400075,0.3977104990712161
199,23375147,3 ROOM,https://www.propertyguru.com.sg/listing/hdb-for-sale-416-bukit-batok-west-avenue-4-23375147,https://sg2-cdn.pgimgs.com/listing/23375147/UPHO.127172347.R400X300/416-Bukit-Batok-West-Avenue-4-Dairy-Farm-Bukit-Panjang-Choa-Chu-Kang-Singapore.jpg,416 Bukit Batok West Avenue 4,73.02186010646699,1985,63,330001,1.36323334513612,103.745988532649,23,Bukit Gombak,0.8022159552101179,West   Mall    Singapore ,1.5040417637037125,11.602484062820391,2.3717315314756386,0.39881271496964865
200,23377109,3 ROOM,https://www.propertyguru.com.sg/listing/hdb-for-sale-43-bendemeer-road-23377109,https://sg1-cdn.pgimgs.com/listing/23377109/UPHO.127199630.R400X300/43-Bendemeer-Road-Balestier-Toa-Payoh-Singapore.jpg,43 Bendemeer Road,62.98832207657076,1981,59,310000,1.32112499272338,103.865833285976,12,Boon Keng,0.47849998417341105,The   Poiz    Singapore ,1.166373290684694,4.1189892449266905,0.37776947839051345,0.5067622728170663
201,23455132,3 ROOM,https://www.propertyguru.com.sg/listing/hdb-for-sale-18c-circuit-road-23455132,https://sg1-cdn.pgimgs.com/listing/23455132/UPHO.128223210.R400X300/18C-Circuit-Road-Macpherson-Potong-Pasir-Singapore.jpg,18C Circuit Road,66.98315666254797,2015,93,599888,1.3292969092972,103.888792588332,13,MacPherson,0.30691135187013197,Grantral   Mall    Singapore ,0.5116622317693943,6.818061074035077,0.2408585783987961,0.06185133007788878
202,23438512,3 ROOM,https://www.propertyguru.com.sg/listing/hdb-for-sale-416-bukit-batok-west-avenue-4-23438512,https://sg1-cdn.pgimgs.com/listing/23438512/UPHO.128004444.R400X300/416-Bukit-Batok-West-Avenue-4-Dairy-Farm-Bukit-Panjang-Choa-Chu-Kang-Singapore.jpg,416 Bukit Batok West Avenue 4,72.92895697656054,1985,63,330000,1.36323334513612,103.745988532649,23,Bukit Gombak,0.8022159552101179,West   Mall    Singapore ,1.5040417637037125,11.602484062820391,2.3717315314756386,0.39881271496964865
203,23421316,3 ROOM,https://www.propertyguru.com.sg/listing/hdb-for-sale-308b-ang-mo-kio-avenue-1-23421316,https://sg2-cdn.pgimgs.com/listing/23421316/UPHO.127790229.R400X300/308B-Ang-Mo-Kio-Avenue-1-Ang-Mo-Kio-Bishan-Thomson-Singapore.jpg,308B Ang Mo Kio Avenue 1,69.95605681955425,2011,89,519000,1.3652661423815,103.844538059044,20,Ang Mo Kio,0.7714575065745607,AMKHub    Singapore ,0.6222645626074642,6.844218575435977,0.42294556329370875,0.33497195035242316
204,23398557,3 ROOM,https://www.propertyguru.com.sg/listing/hdb-for-sale-547c-segar-road-23398557,https://sg1-cdn.pgimgs.com/listing/23398557/UPHO.127497674.R400X300/547C-Segar-Road-Dairy-Farm-Bukit-Panjang-Choa-Chu-Kang-Singapore.jpg,547C Segar Road,66.98315666254797,2014,92,390000,1.38853827277488,103.768773256544,23,Segar,0.1297950628225504,Greenridge   Shopping   Centre    Singapore ,0.4487248208251055,11.692837026822124,5.5010542048037,0.09512826042425873
205,23401708,3 ROOM,https://www.propertyguru.com.sg/listing/hdb-for-sale-520c-tampines-central-8-23401708,https://sg2-cdn.pgimgs.com/listing/23401708/UPHO.127536681.R400X300/520C-Tampines-Central-8-Pasir-Ris-Tampines-Singapore.jpg,520C Tampines Central 8,61.96638764759985,2014,92,518000,1.35674170789189,103.939692399456,18,Tampines,0.47649002125411827,Tampines 1    Singapore ,0.4090388194569561,13.234752834890973,1.334282889457695,0.6039801617423883
206,23463058,3 ROOM,https://www.propertyguru.com.sg/listing/hdb-for-sale-635-veerasamy-road-23463058,https://sg1-cdn.pgimgs.com/listing/23463058/UPHO.128330112.R400X300/635-Veerasamy-Road-Farrer-Park-Serangoon-Rd-Singapore.jpg,635 Veerasamy Road,71.99992567749608,1984,62,480000,1.30658850181779,103.855218716278,8,Jalan Besar,0.11802859267945795,Mustafa   Shopping   Centre    Singapore ,0.3826480241988258,2.5297582604757576,0.20378362878598213,0.2546811334677929
207,23462047,3 ROOM,https://www.propertyguru.com.sg/listing/hdb-for-sale-2-marsiling-drive-23462047,https://sg1-cdn.pgimgs.com/listing/23462047/UPHO.128316794.R400X300/2-Marsiling-Drive-Admiralty-Woodlands-Singapore.jpg,2 Marsiling Drive,76.18056652328617,1973,51,290000,1.4399947,103.7765892,25,Marsiling,0.8680239027216925,Marsiling   Mall    Singapore ,0.8017100801779331,16.25816126461408,0.40329279118251826,0.8767730678700857
208,23462803,3 ROOM,https://www.propertyguru.com.sg/listing/hdb-for-sale-256c-sumang-walk-23462803,https://sg1-cdn.pgimgs.com/listing/23462803/UPHO.128326442.R400X300/256C-Sumang-Walk-Hougang-Punggol-Sengkang-Singapore.jpg,256C Sumang Walk,67.91218796161243,2015,93,420000,1.40540203681825,103.895910481206,19,Soo Teck,0.15306266941027322,Waterway   Point    Singapore ,0.6872770410725872,13.211444276342869,5.26395905526798,0.10154517311656387
209,23462782,3 ROOM,https://www.propertyguru.com.sg/listing/hdb-for-sale-662b-edgedale-plains-23462782,https://sg1-cdn.pgimgs.com/listing/23462782/UPHO.128325970.R400X300/662B-Edgedale-Plains-Hougang-Punggol-Sengkang-Singapore.jpg,662B Edgedale Plains,66.98315666254797,2016,94,449000,1.40172153675655,103.918690999509,19,Kadaloor,0.3336451661631672,Oasis   Terraces    Singapore ,0.6110351703230067,14.410501703803321,5.968226961809045,0.38609196871344936
210,23462433,3 ROOM,https://www.propertyguru.com.sg/listing/hdb-for-sale-223-pending-road-23462433,https://sg2-cdn.pgimgs.com/listing/23462433/UPHO.128322935.R400X300/223-Pending-Road-Dairy-Farm-Bukit-Panjang-Choa-Chu-Kang-Singapore.jpg,223 Pending Road,73.02186010646699,1986,64,345000,1.37573517510314,103.773609219643,23,Pending,0.26487044305316443,Fajar   Shopping   Centre    Singapore ,0.9304411925870272,10.243915727287982,4.0264163458150115,0.24189408717127003
211,23436927,3 ROOM,https://www.propertyguru.com.sg/listing/hdb-for-sale-91-dawson-road-23436927,https://sg2-cdn.pgimgs.com/listing/23436927/UPHO.127982279.R400X300/91-Dawson-Road-Alexandra-Commonwealth-Singapore.jpg,91 Dawson Road,64.93928780460614,2015,93,650000,1.29534041095665,103.812585191493,3,Queenstown,0.7448107566353119,Anchorpoint    Singapore ,1.1262567346821801,2.4582348210361986,1.0557205513015475,0.31423121864058984
212,23447706,3 ROOM,https://www.propertyguru.com.sg/listing/hdb-for-sale-663a-punggol-drive-23447706,https://sg2-cdn.pgimgs.com/listing/23447706/UPHO.128128037.R400X300/663A-Punggol-Drive-Hougang-Punggol-Sengkang-Singapore.jpg,663A Punggol Drive,66.98315666254797,2015,93,430000,1.40024347718059,103.91708004,19,Kadaloor,0.0909141506394664,Oasis   Terraces    Singapore ,0.5000148114566254,14.168700353982349,5.729032341890044,0.14339840243782354
213,23448987,3 ROOM,https://www.propertyguru.com.sg/listing/hdb-for-sale-87-dawson-road-23448987,https://sg2-cdn.pgimgs.com/listing/23448987/UPHO.128144711.R400X300/87-Dawson-Road-Alexandra-Commonwealth-Singapore.jpg,87 Dawson Road,64.93928780460614,2015,93,688000,1.29573042684509,103.809759937443,3,Queenstown,0.439489065654806,Anchorpoint    Singapore ,0.951248682449239,2.728304624067712,0.8110552156203675,0.04567516069810029
214,23439329,3 ROOM,https://www.propertyguru.com.sg/listing/hdb-for-sale-527b-pasir-ris-street-51-23439329,https://sg1-cdn.pgimgs.com/listing/23439329/UPHO.128016938.R400X300/527B-Pasir-Ris-Street-51-Pasir-Ris-Tampines-Singapore.jpg,527B Pasir Ris Street 51,68.00509109151888,2014,92,468000,1.36899453114431,103.947710069014,18,Pasir Ris,0.5051492640985269,White   Sands    Singapore ,0.42976511857415006,14.654463114636018,2.603881451479246,0.08045642903746066
215,23442205,3 ROOM,https://www.propertyguru.com.sg/listing/hdb-for-sale-109-bukit-purmei-road-23442205,https://sg1-cdn.pgimgs.com/listing/23442205/UPHO.128054776.R400X300/109-Bukit-Purmei-Road-Harbourfront-Telok-Blangah-Singapore.jpg,109 Bukit Purmei Road,73.95089140553145,1984,62,428000,1.27392939929263,103.825310761145,4,HarbourFront,1.0829222874691269,Vivo   City    Singapore ,1.1192925001617482,3.5356822786722724,0.3972628185759362,0.7906798361904827
216,23442618,3 ROOM,https://www.propertyguru.com.sg/listing/hdb-for-sale-633-veerasamy-road-23442618,https://sg1-cdn.pgimgs.com/listing/23442618/UPHO.128059818.R400X300/633-Veerasamy-Road-Farrer-Park-Serangoon-Rd-Singapore.jpg,633 Veerasamy Road,71.99992567749608,1984,62,430000,1.30570669566479,103.854943243934,8,Jalan Besar,0.05819101038227543,Sim   Lim   Square    Singapore ,0.36589292086529146,2.493762518950002,0.2827142937492566,0.3220384120253422
